{"type":"FeatureCollection","name":"SPORT_OPENBAAR","crs":{"type":"name","properties":{"name":"urn:ogc:def:crs:OGC:1.3:CRS84"}},"features":[{"id":1,"type":"Feature","geometry":{"type":"Point","coordinates":[4.9503698,52.3889008]},"properties":{"Naam":"NIEUWENDAM","Sportvoorziening":"Basketbal","Locatie":"Speeltuin","Omheining":"Geen","Ondergrond":"Asfalt","Verlichting":"Ja","Overdekt":"Nee","Omschrijving":"Basketbalpaal, speeltuin Nieuwendam","Oppervlak":507,"Foto":"Nieuwendam_1.jpg"}},{"id":2,"type":"Feature","geometry":{"type":"Point","coordinates":[4.95999,52.3919983]},"properties":{"Naam":"CORVERSBOSSTRAAT","Sportvoorziening":"Basketbal","Locatie":"Schoolplein","Omheining":"Geen","Ondergrond":"Stoeptegels","Verlichting":"Nee","Overdekt":"Nee","Omschrijving":"Basketbalveld","Oppervlak":392,"Foto":"Corversbosstraat_1.jpg"}},{"id":3,"type":"Feature","geometry":{"type":"Point","coordinates":[4.9586201,52.394001]},"properties":{"Naam":"BREEHORNSTRAAT","Sportvoorziening":"Basketbal","Locatie":"Schoolplein","Omheining":"Ballenvangers","Ondergrond":"Asfalt","Verlichting":"Nee","Overdekt":"Nee","Omschrijving":"Basketbalveld","Oppervlak":280,"Foto":"Breehornstraat.jpg"}},{"id":4,"type":"Feature","geometry":{"type":"Point","coordinates":[4.9558301,52.3987007]},"properties":{"Naam":"MARKENGOUW","Sportvoorziening":"Basketbal","Locatie":"Stoep","Omheining":"Ballenvangers","Ondergrond":"Asfalt","Verlichting":"Nee","Overdekt":"Nee","Omschrijving":"Basketbalveld met belijning, 1 lange zijde spijlenhekwerk, zitbanken naast veld","Oppervlak":320,"Foto":"Markengouw.jpg"}},{"id":5,"type":"Feature","geometry":{"type":"Point","coordinates":[4.9559698,52.3972015]},"properties":{"Naam":"WILDRIJKSTRAAT","Sportvoorziening":"Basketbal","Locatie":"Schoolplein","Omheining":"Geen","Ondergrond":"Stoeptegels","Verlichting":"Nee","Overdekt":"Nee","Omschrijving":"Basketbalveld, zitbanken","Oppervlak":317,"Foto":"Wildrijkstraat.jpg"}},{"id":6,"type":"Feature","geometry":{"type":"Point","coordinates":[4.9523902,52.3956985]},"properties":{"Naam":"DUINPAN","Sportvoorziening":"Basketbal","Locatie":"Speeltuin","Omheining":"Geen","Ondergrond":"Asfalt","Verlichting":"Nee","Overdekt":"Nee","Omschrijving":"Basketbalveld, speeltuin De Duinpan, zitbanken naast veld","Oppervlak":386,"Foto":"Duinpan.jpg"}},{"id":7,"type":"Feature","geometry":{"type":"Point","coordinates":[4.95047,52.3953018]},"properties":{"Naam":"BEEMSTERSTRAAT","Sportvoorziening":"Basketbal","Locatie":"Schoolplein","Omheining":"Hekwerk laag","Ondergrond":"Asfalt","Verlichting":"Nee","Overdekt":"Nee","Omschrijving":"Basketbalveld, zitbanken naast veld","Oppervlak":554,"Foto":"Beemsterstraat.jpg"}},{"id":8,"type":"Feature","geometry":{"type":"Point","coordinates":[4.9462099,52.4007988]},"properties":{"Naam":"HOUDRINGE","Sportvoorziening":"Basketbal","Locatie":"Schoolplein","Omheining":"Hekwerk laag","Ondergrond":"Asfalt","Verlichting":"Nee","Overdekt":"Nee","Omschrijving":"Basketbalveld met belijning, zitbanken naast veld","Oppervlak":355,"Foto":"Houdringe.jpg"}},{"id":9,"type":"Feature","geometry":{"type":"Point","coordinates":[4.9466701,52.4028015]},"properties":{"Naam":"ELPERMEER","Sportvoorziening":"Basketbal","Locatie":"Plantsoen","Omheining":"Geen","Ondergrond":"Stoeptegels","Verlichting":"Nee","Overdekt":"Nee","Omschrijving":"Basketbalpaal, zitbanken naast veld, combi-veld","Oppervlak":366,"Foto":"Elpermeer.jpg"}},{"id":10,"type":"Feature","geometry":{"type":"Point","coordinates":[4.9363899,52.4025993]},"properties":{"Naam":"CLEYNDERTWEG","Sportvoorziening":"Basketbal","Locatie":"Plantsoen","Omheining":"Ballenvangers","Ondergrond":"Asfalt","Verlichting":"Nee","Overdekt":"Nee","Omschrijving":"Basketbalveld met belijning","Oppervlak":396,"Foto":"Cleyndertweg.jpg"}},{"id":11,"type":"Feature","geometry":{"type":"Point","coordinates":[4.9103699,52.3829994]},"properties":{"Naam":"IJPLEIN","Sportvoorziening":"Basketbal","Locatie":"Plantsoen","Omheining":"Kooi open","Ondergrond":"Asfalt","Verlichting":"Nee","Overdekt":"Nee","Omschrijving":"Basketbalveld, zitbanken naast veld","Oppervlak":339,"Foto":"IJplein_1.jpg"}},{"id":12,"type":"Feature","geometry":{"type":"Point","coordinates":[4.91432,52.3843994]},"properties":{"Naam":"SPREEUWENPARK","Sportvoorziening":"Basketbal","Locatie":"Plantsoen","Omheining":"Geen","Ondergrond":"Asfalt","Verlichting":"Nee","Overdekt":"Nee","Omschrijving":"Basketbalveld","Oppervlak":158,"Foto":"Spreeuwenpark_1.jpg"}},{"id":13,"type":"Feature","geometry":{"type":"Point","coordinates":[4.9144201,52.384201]},"properties":{"Naam":"SPREEUWENPARK","Sportvoorziening":"Basketbal","Locatie":"Plantsoen","Omheining":"Kooi open","Ondergrond":"Asfalt","Verlichting":"Nee","Overdekt":"Nee","Omschrijving":"Basketbalveld, combi-veld","Oppervlak":532,"Foto":"Spreeuwenpark_2.jpg"}},{"id":14,"type":"Feature","geometry":{"type":"Point","coordinates":[4.9306502,52.3918991]},"properties":{"Naam":"NOORDERLING","Sportvoorziening":"Basketbal","Locatie":"Speeltuin","Omheining":"Hekwerk","Ondergrond":"Asfalt","Verlichting":"Ja","Overdekt":"Nee","Omschrijving":"Basketbalveld, speeltuin De Noorderling","Oppervlak":680,"Foto":"DeNoorderling_1.jpg"}},{"id":15,"type":"Feature","geometry":{"type":"Point","coordinates":[4.9312601,52.3983994]},"properties":{"Naam":"LOENERMARK","Sportvoorziening":"Basketbal","Locatie":"Plantsoen","Omheining":"Geen","Ondergrond":"Asfalt","Verlichting":"Nee","Overdekt":"Nee","Omschrijving":"Basketbalveld","Oppervlak":344,"Foto":"Loenermark_1.jpg"}},{"id":16,"type":"Feature","geometry":{"type":"Point","coordinates":[4.9351501,52.3964996]},"properties":{"Naam":"BREEDVELD","Sportvoorziening":"Basketbal","Locatie":"Plein","Omheining":"Geen","Ondergrond":"Asfalt","Verlichting":"Nee","Overdekt":"Nee","Omschrijving":"Basketbalveld","Oppervlak":536,"Foto":"Breedveld_2.jpg"}},{"id":17,"type":"Feature","geometry":{"type":"Point","coordinates":[4.9214702,52.4071999]},"properties":{"Naam":"DRIEMASTER","Sportvoorziening":"Basketbal","Locatie":"Schoolplein","Omheining":"Hekwerk laag","Ondergrond":"Stoeptegels","Verlichting":"Nee","Overdekt":"Nee","Omschrijving":"Basketbalveld, combi-veld","Oppervlak":310,"Foto":"DeDriemaster.jpg"}},{"id":18,"type":"Feature","geometry":{"type":"Point","coordinates":[4.9222002,52.4123001]},"properties":{"Naam":"STAGHOF","Sportvoorziening":"Basketbal","Locatie":"Plein","Omheining":"Ballenvangers","Ondergrond":"Stoeptegels","Verlichting":"Nee","Overdekt":"Nee","Omschrijving":"Basketbalpaal, zitbanken naast veld","Oppervlak":270,"Foto":"Staghof.jpg"}},{"id":19,"type":"Feature","geometry":{"type":"Point","coordinates":[4.9192901,52.4104004]},"properties":{"Naam":"OVERSLAG","Sportvoorziening":"Basketbal","Locatie":"Plantsoen","Omheining":"Ballenvangers","Ondergrond":"Asfalt","Verlichting":"Ja","Overdekt":"Nee","Omschrijving":"Basketbalveld met belijning, zitbanken naast veld","Oppervlak":507,"Foto":"Overslag_1.jpg"}},{"id":20,"type":"Feature","geometry":{"type":"Point","coordinates":[4.9194102,52.4104004]},"properties":{"Naam":"OVERSLAG","Sportvoorziening":"Basketbal","Locatie":"Plantsoen","Omheining":"Ballenvangers","Ondergrond":"Asfalt","Verlichting":"Ja","Overdekt":"Nee","Omschrijving":"Basketbalveld met belijning, zitbanken naast veld","Oppervlak":675,"Foto":"Overslag_1.jpg"}},{"id":21,"type":"Feature","geometry":{"type":"Point","coordinates":[4.9177299,52.4053001]},"properties":{"Naam":"GAUDINSTRAAT","Sportvoorziening":"Basketbal","Locatie":"Stoep","Omheining":"Ballenvangers","Ondergrond":"Asfalt","Verlichting":"Nee","Overdekt":"Nee","Omschrijving":"Basketbalveld met belijning, zitbanken naast veld, ballenvangers (3 zijden)","Oppervlak":435,"Foto":"Gaudinstraat.jpg"}},{"id":22,"type":"Feature","geometry":{"type":"Point","coordinates":[4.9022698,52.419899]},"properties":{"Naam":"TWISKE","Sportvoorziening":"Basketbal","Locatie":"Speeltuin","Omheining":"Hekwerk laag","Ondergrond":"Stoeptegels","Verlichting":"Nee","Overdekt":"Nee","Omschrijving":"Basketbalpaal, speeltuin `t Twiske, zitbanken naast veld","Oppervlak":246,"Foto":"Twiske_1.jpg"}},{"id":23,"type":"Feature","geometry":{"type":"Point","coordinates":[4.8857298,52.4117012]},"properties":{"Naam":"ANTARUSSTRAAT","Sportvoorziening":"Basketbal","Locatie":"Plantsoen","Omheining":"Geen","Ondergrond":"Stoeptegels","Verlichting":"Nee","Overdekt":"Nee","Omschrijving":"Basketbalpaal, zitbanken naast veld","Oppervlak":304,"Foto":"Antarusstraat_2.jpg"}},{"id":24,"type":"Feature","geometry":{"type":"Point","coordinates":[4.88623,52.412899]},"properties":{"Naam":"OOSTZAAN","Sportvoorziening":"Basketbal","Locatie":"Speeltuin","Omheining":"Ballenvangers","Ondergrond":"Asfalt","Verlichting":"Nee","Overdekt":"Nee","Omschrijving":"Basketbalveld, speeltuin Oostzaan, combi-veld","Oppervlak":864,"Foto":"Oostzaan.jpg"}},{"id":25,"type":"Feature","geometry":{"type":"Point","coordinates":[4.89047,52.4117012]},"properties":{"Naam":"CASTORPLEIN","Sportvoorziening":"Basketbal","Locatie":"Plantsoen","Omheining":"Ballenvangers","Ondergrond":"Asfalt","Verlichting":"Nee","Overdekt":"Nee","Omschrijving":"Basketbalpaal","Oppervlak":343,"Foto":"Castorplein.jpg"}},{"id":26,"type":"Feature","geometry":{"type":"Point","coordinates":[4.9011402,52.4121017]},"properties":{"Naam":"DRUIVENSTRAAT","Sportvoorziening":"Basketbal","Locatie":"Plantsoen","Omheining":"Hekwerk laag","Ondergrond":"Asfalt","Verlichting":"Nee","Overdekt":"Nee","Omschrijving":"Basketbalpaal","Oppervlak":570,"Foto":"Druivenstraat.jpg"}},{"id":27,"type":"Feature","geometry":{"type":"Point","coordinates":[4.9156499,52.3891983]},"properties":{"Naam":"VARENWEG","Sportvoorziening":"Basketbal","Locatie":"Plantsoen","Omheining":"Kooi gesloten","Ondergrond":"Asfalt","Verlichting":"Nee","Overdekt":"Nee","Omschrijving":"Basketbalpaal, zitbanken naast veld","Oppervlak":331,"Foto":"Varenweg_2.jpg"}},{"id":28,"type":"Feature","geometry":{"type":"Point","coordinates":[4.9105401,52.3988991]},"properties":{"Naam":"KLIMOPWEG","Sportvoorziening":"Basketbal","Locatie":"Plein","Omheining":"Geen","Ondergrond":"Stoeptegels","Verlichting":"Nee","Overdekt":"Nee","Omschrijving":"Basketbalpaal, zitbanken naast veld","Oppervlak":428,"Foto":"Klimopweg.jpg"}},{"id":29,"type":"Feature","geometry":{"type":"Point","coordinates":[4.91189,52.4005013]},"properties":{"Naam":"FLORAWEG","Sportvoorziening":"Basketbal","Locatie":"Schoolplein","Omheining":"Ballenvangers","Ondergrond":"Asfalt","Verlichting":"Nee","Overdekt":"Nee","Omschrijving":"Basketbalveld, combi-veld, zitbanken naast veld, ballenvangers (3 zijden)","Oppervlak":459,"Foto":"Floraweg_2.jpg"}},{"id":30,"type":"Feature","geometry":{"type":"Point","coordinates":[4.9195365,52.398941]},"properties":{"Naam":"Tennisveld Noorderparkbad","Sportvoorziening":"Tennis","Locatie":"Plantsoen","Omheining":"Hekwerk laag","Ondergrond":"Asfalt","Verlichting":"Nee","Overdekt":"Nee","Omschrijving":"","Oppervlak":310,"Foto":""}},{"id":31,"type":"Feature","geometry":{"type":"Point","coordinates":[4.9185901,52.3964005]},"properties":{"Naam":"BLOEMENKWARTIER","Sportvoorziening":"Basketbal","Locatie":"Speeltuin","Omheining":"Geen","Ondergrond":"Asfalt","Verlichting":"Nee","Overdekt":"Nee","Omschrijving":"Basketbalpaal, speeltuin Bloemenkwartier, zitbanken naast veld","Oppervlak":180,"Foto":"Bloemenkwartier.jpg"}},{"id":32,"type":"Feature","geometry":{"type":"Point","coordinates":[4.8401599,52.3807983]},"properties":{"Naam":"WILTZANGH","Sportvoorziening":"Basketbal","Locatie":"Schoolplein","Omheining":"Geen","Ondergrond":"Asfalt","Verlichting":"Ja","Overdekt":"Nee","Omschrijving":"Basketbalveld met belijning, zitbanken naast veld, combi-veld","Oppervlak":403,"Foto":"Wiltzangh_1.jpg"}},{"id":33,"type":"Feature","geometry":{"type":"Point","coordinates":[4.8485022,52.3844109]},"properties":{"Naam":"GIBRALTAR","Sportvoorziening":"Basketbal","Locatie":"Speeltuin","Omheining":"Geen","Ondergrond":"Kunstgras","Verlichting":"Nee","Overdekt":"Nee","Omschrijving":"Basketbalveld, beperkt openbaar, zitbanken naast veld","Oppervlak":341,"Foto":"Gibraltar.jpg"}},{"id":34,"type":"Feature","geometry":{"type":"Point","coordinates":[4.856663,52.3760519]},"properties":{"Naam":"JOOS BANCKERSWEG","Sportvoorziening":"Basketbal","Locatie":"Sportpark","Omheining":"Ballenvangers","Ondergrond":"Asfalt","Verlichting":"Nee","Overdekt":"Nee","Omschrijving":"Basketbalveld met belijning, 1 lange zijde laag dubbelstaafmat hekwerk, combi-veld, ballenvangers (3 zijden)","Oppervlak":383,"Foto":"JoosBanckersweg_1.jpg"}},{"id":36,"type":"Feature","geometry":{"type":"Point","coordinates":[4.8595662,52.3791046]},"properties":{"Naam":"KAREL DOORMANPLEIN","Sportvoorziening":"Basketbal","Locatie":"Schoolplein","Omheining":"Geen","Ondergrond":"Stoeptegels","Verlichting":"Nee","Overdekt":"Nee","Omschrijving":"Basketbalpaal","Oppervlak":335,"Foto":"DeRuijter_1.jpg"}},{"id":37,"type":"Feature","geometry":{"type":"Point","coordinates":[4.90376,52.3550987]},"properties":{"Naam":"SERVEASNOUTSSTRAAT","Sportvoorziening":"Basketbal","Locatie":"Plein","Omheining":"Ballenvangers","Ondergrond":"Asfalt","Verlichting":"Nee","Overdekt":"Nee","Omschrijving":"Basketbalveld, zitbanken naast veld","Oppervlak":293,"Foto":"Serveasnoutsstraat_2.jpg"}},{"id":38,"type":"Feature","geometry":{"type":"Point","coordinates":[4.9052801,52.3532982]},"properties":{"Naam":"DORATAMANAPLEIN","Sportvoorziening":"Basketbal","Locatie":"Plein","Omheining":"Geen","Ondergrond":"Asfalt","Verlichting":"Nee","Overdekt":"Nee","Omschrijving":"Basketbalveld, zitbanken naast veld","Oppervlak":364,"Foto":"Doratamanaplein.jpg"}},{"id":39,"type":"Feature","geometry":{"type":"Point","coordinates":[4.9054499,52.3507004]},"properties":{"Naam":"SMARAGDPLEIN","Sportvoorziening":"Basketbal","Locatie":"Plein","Omheining":"Kooi gesloten","Ondergrond":"Asfalt","Verlichting":"Nee","Overdekt":"Nee","Omschrijving":"Basketbalveld, combi-veld","Oppervlak":396,"Foto":"Smaragdplein.jpg"}},{"id":40,"type":"Feature","geometry":{"type":"Point","coordinates":[4.898339,52.351475]},"properties":{"Naam":"Henrick de Keijserplein","Sportvoorziening":"Basketbal","Locatie":"Speeltuin","Omheining":"Kooi open","Ondergrond":"Asfalt","Verlichting":"Ja","Overdekt":"Nee","Omschrijving":"Basketbalveld, combi-veld, speeltuin Henrick de Keijser, zitbanken naast veld","Oppervlak":997,"Foto":"HdeKeijserplein_2.jpg"}},{"id":41,"type":"Feature","geometry":{"type":"Point","coordinates":[4.8985296,52.3543539]},"properties":{"Naam":"Basketbalveld Sarphatipark","Sportvoorziening":"Basketbal","Locatie":"Park","Omheining":"Geen","Ondergrond":"Asfalt","Verlichting":"Nee","Overdekt":"Nee","Omschrijving":"Basketbalveld, zitbanken naast veld","Oppervlak":170,"Foto":"Basketbalveld Sarphatipark.JPG"}},{"id":42,"type":"Feature","geometry":{"type":"Point","coordinates":[4.8839598,52.3583984]},"properties":{"Naam":"MUSEUMPLEIN","Sportvoorziening":"Basketbal","Locatie":"Plein","Omheining":"Geen","Ondergrond":"Asfalt","Verlichting":"Ja","Overdekt":"Nee","Omschrijving":"Basketbalveld, zitbanken naast veld","Oppervlak":521,"Foto":"Museumplein_1.jpg"}},{"id":43,"type":"Feature","geometry":{"type":"Point","coordinates":[4.8782301,52.3525009]},"properties":{"Naam":"OBRECHTPLEIN","Sportvoorziening":"Basketbal","Locatie":"Schoolplein","Omheining":"Hekwerk","Ondergrond":"Asfalt","Verlichting":"Nee","Overdekt":"Nee","Omschrijving":"Basketbalpaal","Oppervlak":346,"Foto":"JObrechtplein_2.jpg"}},{"id":44,"type":"Feature","geometry":{"type":"Point","coordinates":[4.8471899,52.3550987]},"properties":{"Naam":"BOCKESPRONG","Sportvoorziening":"Basketbal","Locatie":"Speeltuin","Omheining":"Geen","Ondergrond":"Asfalt","Verlichting":"Nee","Overdekt":"Nee","Omschrijving":"Basketbalveld, combi-veld","Oppervlak":1502,"Foto":"Bockesprong_1.jpg"}},{"id":45,"type":"Feature","geometry":{"type":"Point","coordinates":[4.86203,52.3437004]},"properties":{"Naam":"ARGONAUTENSTRAAT","Sportvoorziening":"Basketbal","Locatie":"Speeltuin","Omheining":"Hekwerk","Ondergrond":"Asfalt","Verlichting":"Nee","Overdekt":"Nee","Omschrijving":"Basketbalveld, zitbanken naast veld","Oppervlak":893,"Foto":"Olympia_2.jpg"}},{"id":46,"type":"Feature","geometry":{"type":"Point","coordinates":[4.8631501,52.3469009]},"properties":{"Naam":"HYGIEAPLEIN","Sportvoorziening":"Basketbal","Locatie":"Schoolplein","Omheining":"Ballenvangers","Ondergrond":"Asfalt","Verlichting":"Nee","Overdekt":"Nee","Omschrijving":"Basketbalveld, combi-veld, zitbanken naast veld","Oppervlak":403,"Foto":"Hygieaplein_2.jpg"}},{"id":47,"type":"Feature","geometry":{"type":"Point","coordinates":[4.8640499,52.3478012]},"properties":{"Naam":"HYGIEAPLEIN","Sportvoorziening":"Basketbal","Locatie":"Schoolplein","Omheining":"Geen","Ondergrond":"Asfalt","Verlichting":"Nee","Overdekt":"Nee","Omschrijving":"Basketbalveld, zitbanken naast veld","Oppervlak":399,"Foto":"Hygieaplein_3.jpg"}},{"id":48,"type":"Feature","geometry":{"type":"Point","coordinates":[4.8704,52.3511009]},"properties":{"Naam":"WITSENSTRAAT","Sportvoorziening":"Basketbal","Locatie":"Schoolplein","Omheining":"Geen","Ondergrond":"Stoeptegels","Verlichting":"Nee","Overdekt":"Nee","Omschrijving":"Basketbalpaal","Oppervlak":193,"Foto":"WWitsenstraat.jpg"}},{"id":49,"type":"Feature","geometry":{"type":"Point","coordinates":[4.87431,52.3493004]},"properties":{"Naam":"SCHELTEMAPLEIN","Sportvoorziening":"Basketbal","Locatie":"Plantsoen","Omheining":"Geen","Ondergrond":"Asfalt","Verlichting":"Ja","Overdekt":"Nee","Omschrijving":"Basketbalveld","Oppervlak":175,"Foto":"Scheltemaplein.jpg"}},{"id":51,"type":"Feature","geometry":{"type":"Point","coordinates":[4.8554101,52.3610992]},"properties":{"Naam":"BONAIREPLEIN","Sportvoorziening":"Basketbal","Locatie":"Plein","Omheining":"Geen","Ondergrond":"Stoeptegels","Verlichting":"Nee","Overdekt":"Nee","Omschrijving":"Basketbalpaal, zitbanken naast veld","Oppervlak":71,"Foto":"Bonaireplein.jpg"}},{"id":52,"type":"Feature","geometry":{"type":"Point","coordinates":[4.85219,52.3618011]},"properties":{"Naam":"CORANTIJNSTRAAT","Sportvoorziening":"Basketbal","Locatie":"Schoolplein","Omheining":"Geen","Ondergrond":"Stoeptegels","Verlichting":"Nee","Overdekt":"Nee","Omschrijving":"Basketbalpaal, zitbanken naast veld","Oppervlak":131,"Foto":"Corantijnstraat_1.jpg"}},{"id":53,"type":"Feature","geometry":{"type":"Point","coordinates":[4.8505702,52.3646011]},"properties":{"Naam":"MIDDELLANDSTRAAT","Sportvoorziening":"Basketbal","Locatie":"Stoep","Omheining":"Geen","Ondergrond":"Stoeptegels","Verlichting":"Nee","Overdekt":"Nee","Omschrijving":"Basketbalpaal, zitbanken naast veld","Oppervlak":281,"Foto":"vMiddellandstraat_1.jpg"}},{"id":54,"type":"Feature","geometry":{"type":"Point","coordinates":[4.8467999,52.3703003]},"properties":{"Naam":"MERCATOR","Sportvoorziening":"Basketbal","Locatie":"Speeltuin","Omheining":"Ballenvangers","Ondergrond":"Asfalt","Verlichting":"Nee","Overdekt":"Nee","Omschrijving":"Basketbalpaal met belijning, zitbanken naast veld","Oppervlak":183,"Foto":"Mercator_1.jpg"}},{"id":56,"type":"Feature","geometry":{"type":"Point","coordinates":[4.8579302,52.3726997]},"properties":{"Naam":"Panneveldje","Sportvoorziening":"Voetbal","Locatie":"Plein","Omheining":"Hekwerk","Ondergrond":"Stoeptegels","Verlichting":"Nee","Overdekt":"Nee","Omschrijving":"Voetbalveld, zitbanken naast veld","Oppervlak":327,"Foto":"PvdDoesstraat.jpg"}},{"id":57,"type":"Feature","geometry":{"type":"Point","coordinates":[4.855381,52.3664284]},"properties":{"Naam":"COLUMBUSPLEIN","Sportvoorziening":"Basketbal","Locatie":"Speeltuin","Omheining":"Geen","Ondergrond":"Asfalt","Verlichting":"Ja","Overdekt":"Nee","Omschrijving":"Basketbalveld, zitbanken naast veld","Oppervlak":0,"Foto":"Columbusplein.JPG"}},{"id":58,"type":"Feature","geometry":{"type":"Point","coordinates":[4.8554902,52.3688011]},"properties":{"Naam":"BALBOAPLEIN","Sportvoorziening":"Basketbal","Locatie":"Plein","Omheining":"Geen","Ondergrond":"Asfalt","Verlichting":"Nee","Overdekt":"Nee","Omschrijving":"Basketbalveld met belijning, zitbanken naast veld","Oppervlak":362,"Foto":"Balboaplein_2.jpg"}},{"id":59,"type":"Feature","geometry":{"type":"Point","coordinates":[4.8081368,52.3775885]},"properties":{"Naam":"Lodewijk van Deysselstraat\/Eendrachtspark","Sportvoorziening":"Basketbal","Locatie":"Park","Omheining":"Geen","Ondergrond":"Stoeptegels","Verlichting":"Ja","Overdekt":"Nee","Omschrijving":"Basketbalpaal","Oppervlak":254,"Foto":"Eendrachtspark_2.jpg"}},{"id":60,"type":"Feature","geometry":{"type":"Point","coordinates":[4.8076901,52.3788986]},"properties":{"Naam":"Dr. H. Colijnstraat\/Timotheus","Sportvoorziening":"Basketbal","Locatie":"Schoolplein","Omheining":"Geen","Ondergrond":"Stoeptegels","Verlichting":"Nee","Overdekt":"Nee","Omschrijving":"Basketbalveld","Oppervlak":328,"Foto":"Timotheus.jpg"}},{"id":61,"type":"Feature","geometry":{"type":"Point","coordinates":[4.8076,52.3833008]},"properties":{"Naam":"Basketbalveld Dolhaantjesstraat","Sportvoorziening":"Basketbal","Locatie":"Stoep","Omheining":"Ballenvangers","Ondergrond":"Stoeptegels","Verlichting":"Nee","Overdekt":"Nee","Omschrijving":"Basketbalveld combiveld met pannadoeltjes","Oppervlak":333,"Foto":"Dolhaantjestraat.jpg"}},{"id":62,"type":"Feature","geometry":{"type":"Point","coordinates":[4.8034101,52.3810997]},"properties":{"Naam":"HASSELAARSSTRAAT","Sportvoorziening":"Basketbal","Locatie":"Plein","Omheining":"Ballenvangers","Ondergrond":"Stoeptegels","Verlichting":"Nee","Overdekt":"Nee","Omschrijving":"Basketbalpaal, zitbanken naast veld","Oppervlak":132,"Foto":"KSHasselaarstraat_1.jpg"}},{"id":63,"type":"Feature","geometry":{"type":"Point","coordinates":[4.79498,52.3810997]},"properties":{"Naam":"Cornelis Outshoornstraat","Sportvoorziening":"Basketbal","Locatie":"Plantsoen","Omheining":"Ballenvangers","Ondergrond":"Asfalt","Verlichting":"Nee","Overdekt":"Nee","Omschrijving":"Basketbalveld met belijning, combi-veld, zitbanken naast veld","Oppervlak":372,"Foto":"Cornelis.jpg"}},{"id":64,"type":"Feature","geometry":{"type":"Point","coordinates":[4.7971902,52.3764]},"properties":{"Naam":"KLERKHOF","Sportvoorziening":"Basketbal","Locatie":"Schoolplein","Omheining":"Hekwerk laag","Ondergrond":"Asfalt","Verlichting":"Nee","Overdekt":"Nee","Omschrijving":"Basketbalveld met belijning, combi-veld, zitbanken naast veld","Oppervlak":1525,"Foto":"MdeKlerkhof_2.jpg"}},{"id":65,"type":"Feature","geometry":{"type":"Point","coordinates":[4.8123798,52.3745003]},"properties":{"Naam":"CONFUCIUSPLEIN","Sportvoorziening":"Basketbal","Locatie":"Plein","Omheining":"Kooi open","Ondergrond":"Stoeptegels","Verlichting":"Nee","Overdekt":"Nee","Omschrijving":"Basketbalveld, combi-veld","Oppervlak":305,"Foto":"Confuciusplein.jpg"}},{"id":66,"type":"Feature","geometry":{"type":"Point","coordinates":[4.8304,52.3722992]},"properties":{"Naam":"HOGGUERSTRAAT","Sportvoorziening":"Basketbal","Locatie":"Plein","Omheining":"Geen","Ondergrond":"Asfalt","Verlichting":"Nee","Overdekt":"Nee","Omschrijving":"Basketbalveld met belijning, zitbanken naast veld","Oppervlak":519,"Foto":"BurgHogguerstraat.jpg"}},{"id":67,"type":"Feature","geometry":{"type":"Point","coordinates":[4.8354201,52.3757019]},"properties":{"Naam":"Basketbalveld Broedeletstraat","Sportvoorziening":"Basketbal","Locatie":"Plantsoen","Omheining":"Geen","Ondergrond":"Asfalt","Verlichting":"Nee","Overdekt":"Nee","Omschrijving":"Basketbalveld, combi-veld","Oppervlak":1137,"Foto":"BurgCramergracht_2.jpg"}},{"id":68,"type":"Feature","geometry":{"type":"Point","coordinates":[4.8257399,52.3818016]},"properties":{"Naam":"SLOTERMEER","Sportvoorziening":"Basketbal","Locatie":"Speeltuin","Omheining":"Hekwerk laag","Ondergrond":"Asfalt","Verlichting":"Nee","Overdekt":"Nee","Omschrijving":"Basketbalveld, combi-veld, speeltuin Slotermeer","Oppervlak":819,"Foto":"Slotermeer_2.jpg"}},{"id":69,"type":"Feature","geometry":{"type":"Point","coordinates":[4.82233,52.3835983]},"properties":{"Naam":"SLOTERMEERLAAN","Sportvoorziening":"Basketbal","Locatie":"Schoolplein","Omheining":"Hekwerk laag","Ondergrond":"Stoeptegels","Verlichting":"Nee","Overdekt":"Nee","Omschrijving":"Basketbalpaal","Oppervlak":276,"Foto":"Slotermeerlaan.jpg"}},{"id":70,"type":"Feature","geometry":{"type":"Point","coordinates":[4.8340302,52.3824997]},"properties":{"Naam":"Burgemeester Fockstraat","Sportvoorziening":"Basketbal","Locatie":"Plantsoen","Omheining":"Geen","Ondergrond":"Beton","Verlichting":"Nee","Overdekt":"Nee","Omschrijving":"Basketbalveld, zitbanken naast veld","Oppervlak":433,"Foto":""}},{"id":71,"type":"Feature","geometry":{"type":"Point","coordinates":[4.8003898,52.358799]},"properties":{"Naam":"M. Hanenbergstraat","Sportvoorziening":"Basketbal","Locatie":"Plantsoen","Omheining":"Hekwerk","Ondergrond":"Stoeptegels","Verlichting":"Nee","Overdekt":"Nee","Omschrijving":"Basketbalpaal, combi-veld","Oppervlak":194,"Foto":"Hanenbergstraat_2.jpg"}},{"id":74,"type":"Feature","geometry":{"type":"Point","coordinates":[4.7883501,52.3578987]},"properties":{"Naam":"LANGSWATER","Sportvoorziening":"Basketbal","Locatie":"Plantsoen","Omheining":"Geen","Ondergrond":"Stoeptegels","Verlichting":"Nee","Overdekt":"Nee","Omschrijving":"Basketbalveld, zitbanken naast veld","Oppervlak":359,"Foto":"Langswater_1.jpg"}},{"id":75,"type":"Feature","geometry":{"type":"Point","coordinates":[4.7898798,52.3550987]},"properties":{"Naam":"LANGSWATER","Sportvoorziening":"Basketbal","Locatie":"Plantsoen","Omheining":"Geen","Ondergrond":"Stoeptegels","Verlichting":"Nee","Overdekt":"Nee","Omschrijving":"Basketbalveld met belijning, zitbanken naast veld","Oppervlak":409,"Foto":"Langswater_2.jpg"}},{"id":76,"type":"Feature","geometry":{"type":"Point","coordinates":[4.78732,52.3572514]},"properties":{"Naam":"Combiveld Schuitenhuisstraat","Sportvoorziening":"Basketbal","Locatie":"Schoolplein","Omheining":"Geen","Ondergrond":"Stoeptegels","Verlichting":"Nee","Overdekt":"Nee","Omschrijving":"Basketbalveld, combi-veld, zitbanken naast veld","Oppervlak":118,"Foto":""}},{"id":77,"type":"Feature","geometry":{"type":"Point","coordinates":[4.78157,52.3552017]},"properties":{"Naam":"GRIENDSTRAAT","Sportvoorziening":"Basketbal","Locatie":"Plein","Omheining":"Geen","Ondergrond":"Stoeptegels","Verlichting":"Nee","Overdekt":"Nee","Omschrijving":"Basketbalpaal","Oppervlak":170,"Foto":"Griendstraat.jpg"}},{"id":78,"type":"Feature","geometry":{"type":"Point","coordinates":[4.7748299,52.3504982]},"properties":{"Naam":"MONTAROSAPLEIN","Sportvoorziening":"Basketbal","Locatie":"Schoolplein","Omheining":"Hekwerk laag","Ondergrond":"Asfalt","Verlichting":"Nee","Overdekt":"Nee","Omschrijving":"Basketbalpaal, zitbanken naast veld","Oppervlak":176,"Foto":"MontaRosaplein_2.jpg"}},{"id":79,"type":"Feature","geometry":{"type":"Point","coordinates":[4.7841902,52.3516998]},"properties":{"Naam":"WOORTMANPLEIN","Sportvoorziening":"Basketbal","Locatie":"Plein","Omheining":"Kooi open","Ondergrond":"Asfalt","Verlichting":"Nee","Overdekt":"Nee","Omschrijving":"Basketbalveld","Oppervlak":321,"Foto":"JWoortmanplein.jpg"}},{"id":80,"type":"Feature","geometry":{"type":"Point","coordinates":[4.7863302,52.3465004]},"properties":{"Naam":"FORINTPLANTSOEN","Sportvoorziening":"Basketbal","Locatie":"Plantsoen","Omheining":"Ballenvangers","Ondergrond":"Stoeptegels","Verlichting":"Nee","Overdekt":"Nee","Omschrijving":"Basketbalpaal, zitbanken naast veld","Oppervlak":84,"Foto":"Forintplantsoen.jpg"}},{"id":81,"type":"Feature","geometry":{"type":"Point","coordinates":[4.7961202,52.3422012]},"properties":{"Naam":"SPEELTUIN SLOTEN","Sportvoorziening":"Basketbal","Locatie":"Speeltuin","Omheining":"Hekwerk","Ondergrond":"Gras","Verlichting":"Nee","Overdekt":"Nee","Omschrijving":"Basketbalpaal, speeltuin Sloten, zitbanken naast veld","Oppervlak":92,"Foto":"Sloten_3.jpg"}},{"id":83,"type":"Feature","geometry":{"type":"Point","coordinates":[4.86834,52.3712997]},"properties":{"Naam":"BILDERDIJK","Sportvoorziening":"Basketbal","Locatie":"Schoolplein","Omheining":"Geen","Ondergrond":"Onverhard","Verlichting":"Nee","Overdekt":"Nee","Omschrijving":"Basketbalpaal, zitbanken naast veld","Oppervlak":124,"Foto":"Bilderdijk_1.jpg"}},{"id":84,"type":"Feature","geometry":{"type":"Point","coordinates":[4.8688502,52.3713989]},"properties":{"Naam":"BILDERDIJK","Sportvoorziening":"Basketbal","Locatie":"Schoolplein","Omheining":"Hekwerk","Ondergrond":"Asfalt","Verlichting":"Ja","Overdekt":"Nee","Omschrijving":"Basketbalveld met belijning, veld ligt verdiept, combi-veld, zitbanken naast veld","Oppervlak":805,"Foto":"Bilderdijk_2.jpg"}},{"id":85,"type":"Feature","geometry":{"type":"Point","coordinates":[4.8733401,52.3706017]},"properties":{"Naam":"DACOSTAPLEIN","Sportvoorziening":"Basketbal","Locatie":"Plein","Omheining":"Geen","Ondergrond":"Asfalt","Verlichting":"Nee","Overdekt":"Nee","Omschrijving":"Basketbalveld, combi-veld, zitbanken naast veld","Oppervlak":451,"Foto":"DaCostaplein.jpg"}},{"id":86,"type":"Feature","geometry":{"type":"Point","coordinates":[4.8653202,52.3646011]},"properties":{"Naam":"HILDEBRANDSTRAAT","Sportvoorziening":"Basketbal","Locatie":"Schoolplein","Omheining":"Hekwerk laag","Ondergrond":"Asfalt","Verlichting":"Nee","Overdekt":"Nee","Omschrijving":"Basketbalpaal, veld ligt verdiept, combi-veld, zitbanken naast veld","Oppervlak":488,"Foto":"Hildebrandstraat_2.jpg"}},{"id":87,"type":"Feature","geometry":{"type":"Point","coordinates":[4.87151,52.3641014]},"properties":{"Naam":"WGPLEIN","Sportvoorziening":"Basketbal","Locatie":"Plein","Omheining":"Geen","Ondergrond":"Asfalt","Verlichting":"Nee","Overdekt":"Nee","Omschrijving":"Basketbalveld, zitbanken naast veld","Oppervlak":185,"Foto":"WGplein.jpg"}},{"id":88,"type":"Feature","geometry":{"type":"Point","coordinates":[4.8585801,52.3595276]},"properties":{"Naam":"JJ CREMERPLEIN","Sportvoorziening":"Basketbal","Locatie":"Speeltuin","Omheining":"Hekwerk","Ondergrond":"Asfalt","Verlichting":"Nee","Overdekt":"Nee","Omschrijving":"Basketbalveld, speeltuin Westerspeeltuin, combi-veld, zitbanken naast veld","Oppervlak":379,"Foto":"Westerspeeltuin_1.jpg"}},{"id":89,"type":"Feature","geometry":{"type":"Point","coordinates":[4.8107901,52.3470001]},"properties":{"Naam":"KASTERLEEPARK","Sportvoorziening":"Basketbal","Locatie":"Plantsoen","Omheining":"Kooi open","Ondergrond":"Asfalt","Verlichting":"Ja","Overdekt":"Nee","Omschrijving":"Basketbalveld, combi-veld, zitbanken naast veld","Oppervlak":609,"Foto":"Kasterleepark_1.jpg"}},{"id":91,"type":"Feature","geometry":{"type":"Point","coordinates":[4.8252401,52.3530006]},"properties":{"Naam":"WESTERHOVEN","Sportvoorziening":"Basketbal","Locatie":"Speeltuin","Omheining":"Hekwerk","Ondergrond":"Asfalt","Verlichting":"Nee","Overdekt":"Nee","Omschrijving":"Basketbalveld met belijning, zitbanken naast veld","Oppervlak":364,"Foto":"MvWesterhoven_2.jpg"}},{"id":92,"type":"Feature","geometry":{"type":"Point","coordinates":[4.8322601,52.3597984]},"properties":{"Naam":"GEELSTRAAT","Sportvoorziening":"Basketbal","Locatie":"Plein","Omheining":"Kooi open","Ondergrond":"Asfalt","Verlichting":"Nee","Overdekt":"Nee","Omschrijving":"Basketbalveld met belijning, combi-veld, zitbanken naast veld","Oppervlak":998,"Foto":"JGeelstraat_2.jpg"}},{"id":93,"type":"Feature","geometry":{"type":"Point","coordinates":[4.8312302,52.3690987]},"properties":{"Naam":"ESCORIALPLEIN","Sportvoorziening":"Basketbal","Locatie":"Plein","Omheining":"Geen","Ondergrond":"Asfalt","Verlichting":"Nee","Overdekt":"Nee","Omschrijving":"Basketbalveld met belijning, veld ligt verdiept, zitbanken naast veld","Oppervlak":448,"Foto":"Escorialplein.jpg"}},{"id":95,"type":"Feature","geometry":{"type":"Point","coordinates":[4.8387198,52.3634987]},"properties":{"Naam":"AUGUST ALLEBEPLEIN","Sportvoorziening":"Basketbal","Locatie":"Plein","Omheining":"Geen","Ondergrond":"Stoeptegels","Verlichting":"Nee","Overdekt":"Nee","Omschrijving":"Basketbalveld","Oppervlak":266,"Foto":"AugustAllebeplein.jpg"}},{"id":96,"type":"Feature","geometry":{"type":"Point","coordinates":[4.83708,52.3582001]},"properties":{"Naam":"JONGKINDSTRAAT","Sportvoorziening":"Basketbal","Locatie":"Plantsoen","Omheining":"Ballenvangers","Ondergrond":"Asfalt","Verlichting":"Ja","Overdekt":"Nee","Omschrijving":"Basketbalveld met belijning, combi-veld, zitbanken naast veld","Oppervlak":546,"Foto":"JJongkindstraat.jpg"}},{"id":98,"type":"Feature","geometry":{"type":"Point","coordinates":[4.8705602,52.3811989]},"properties":{"Naam":"BEUNINGENPLEIN","Sportvoorziening":"Basketbal","Locatie":"Plein","Omheining":"Hekwerk laag","Ondergrond":"Asfalt","Verlichting":"Nee","Overdekt":"Nee","Omschrijving":"Basketbalveld, combi-veld","Oppervlak":472,"Foto":"vBeuningenplein_2.jpg"}},{"id":99,"type":"Feature","geometry":{"type":"Point","coordinates":[4.8763041,52.3782425]},"properties":{"Naam":"FREDERIK HENDRIKPLANTSOEN","Sportvoorziening":"Basketbal","Locatie":"Plantsoen","Omheining":"Geen","Ondergrond":"Asfalt","Verlichting":"Nee","Overdekt":"Nee","Omschrijving":"Basketbalveld met belijning","Oppervlak":312,"Foto":"FHendrikplantsoen_2.jpg"}},{"id":100,"type":"Feature","geometry":{"type":"Point","coordinates":[4.8769398,52.3847008]},"properties":{"Naam":"HOGENDORPPLEIN","Sportvoorziening":"Basketbal","Locatie":"Schoolplein","Omheining":"Geen","Ondergrond":"Asfalt","Verlichting":"Nee","Overdekt":"Nee","Omschrijving":"Basketbalpaal, zitbanken naast veld","Oppervlak":30,"Foto":"vHogendorpplein.jpg"}},{"id":101,"type":"Feature","geometry":{"type":"Point","coordinates":[4.8903899,52.3894005]},"properties":{"Naam":"BARENTSZPLEIN","Sportvoorziening":"Basketbal","Locatie":"Speeltuin","Omheining":"Kooi open","Ondergrond":"Asfalt","Verlichting":"Ja","Overdekt":"Nee","Omschrijving":"Basketbalpaal, combi-veld, speeltuin Zuiderspeeltuin, zitbanken naast veld","Oppervlak":199,"Foto":"Barentszplein_2.jpg"}},{"id":102,"type":"Feature","geometry":{"type":"Point","coordinates":[4.8741641,52.3918152]},"properties":{"Naam":"ZAANDAMMERPLEIN","Sportvoorziening":"Basketbal","Locatie":"Plein","Omheining":"Ballenvangers","Ondergrond":"Asfalt","Verlichting":"Nee","Overdekt":"Nee","Omschrijving":"Basketbalveld met belijning, combi-veld, zitbanken naast veld","Oppervlak":472,"Foto":"Spaarndammerplantsoen_2.jpg"}},{"id":104,"type":"Feature","geometry":{"type":"Point","coordinates":[4.9562802,52.3079987]},"properties":{"Naam":"ABCOUDERPAD","Sportvoorziening":"Basketbal","Locatie":"Plein","Omheining":"Ballenvangers","Ondergrond":"Asfalt","Verlichting":"Nee","Overdekt":"Nee","Omschrijving":"Basketbalveld met belijning","Oppervlak":659,"Foto":"Abcouderpad_2.jpg"}},{"id":107,"type":"Feature","geometry":{"type":"Point","coordinates":[4.94174,52.3237991]},"properties":{"Naam":"DUMASLAAN","Sportvoorziening":"Basketbal","Locatie":"Schoolplein","Omheining":"Geen","Ondergrond":"Stoeptegels","Verlichting":"Nee","Overdekt":"Nee","Omschrijving":"Basketbalpaal","Oppervlak":502,"Foto":"ADumaslaan.jpg"}},{"id":108,"type":"Feature","geometry":{"type":"Point","coordinates":[4.9455427,52.3218756]},"properties":{"Naam":"SHAWSINGEL","Sportvoorziening":"Basketbal","Locatie":"Plantsoen","Omheining":"Ballenvangers","Ondergrond":"Stoeptegels","Verlichting":"Nee","Overdekt":"Nee","Omschrijving":"Basketbalpaal met belijning, zitbanken naast veld. Combiveld","Oppervlak":410,"Foto":"BShawsingel_2.jpg"}},{"id":109,"type":"Feature","geometry":{"type":"Point","coordinates":[4.9489002,52.3228989]},"properties":{"Naam":"DUBBELINK","Sportvoorziening":"Basketbal","Locatie":"Plantsoen","Omheining":"Geen","Ondergrond":"Asfalt","Verlichting":"Nee","Overdekt":"Nee","Omschrijving":"Basketbalveld met belijning, zitbanken naast veld","Oppervlak":585,"Foto":"Dubbelink.jpg"}},{"id":110,"type":"Feature","geometry":{"type":"Point","coordinates":[4.9492602,52.323101]},"properties":{"Naam":"DUBBELINK","Sportvoorziening":"Basketbal","Locatie":"Schoolplein","Omheining":"Geen","Ondergrond":"Asfalt","Verlichting":"Nee","Overdekt":"Nee","Omschrijving":"Basketbalveld met belijning, zitbanken naast veld","Oppervlak":612,"Foto":"Dubbelink.jpg"}},{"id":111,"type":"Feature","geometry":{"type":"Point","coordinates":[4.9593801,52.3025017]},"properties":{"Naam":"NIEUWERSLUISHOF","Sportvoorziening":"Basketbal","Locatie":"Plantsoen","Omheining":"Geen","Ondergrond":"Asfalt","Verlichting":"Nee","Overdekt":"Nee","Omschrijving":"Basketbalveld met belijning, zitbanken naast veld, combiveld met voetbaldoelen","Oppervlak":539,"Foto":"Nieuwersluishof.jpg"}},{"id":113,"type":"Feature","geometry":{"type":"Point","coordinates":[4.96908,52.2943001]},"properties":{"Naam":"TEGELARIJPAD","Sportvoorziening":"Basketbal","Locatie":"Plantsoen","Omheining":"Geen","Ondergrond":"Asfalt","Verlichting":"Nee","Overdekt":"Nee","Omschrijving":"Basketbalveld met belijning","Oppervlak":408,"Foto":"Tegelarijpad.jpg"}},{"id":114,"type":"Feature","geometry":{"type":"Point","coordinates":[4.97541,52.2899017]},"properties":{"Naam":"SNODENHOEKPARK","Sportvoorziening":"Basketbal","Locatie":"Plantsoen","Omheining":"Ballenvangers","Ondergrond":"Asfalt","Verlichting":"Nee","Overdekt":"Nee","Omschrijving":"Basketbalveld met belijning, zitbanken naast veld","Oppervlak":379,"Foto":"Snodenhoekpark_2.jpg"}},{"id":115,"type":"Feature","geometry":{"type":"Point","coordinates":[4.9770398,52.2938995]},"properties":{"Naam":"SCHONERWOERDSTRAAT","Sportvoorziening":"Basketbal","Locatie":"Schoolplein","Omheining":"Ballenvangers","Ondergrond":"Asfalt","Verlichting":"Nee","Overdekt":"Nee","Omschrijving":"Voetbalvelden met basketbalringen (combiveld)","Oppervlak":220,"Foto":""}},{"id":116,"type":"Feature","geometry":{"type":"Point","coordinates":[4.9914999,52.2901001]},"properties":{"Naam":"VOSPAD","Sportvoorziening":"Basketbal","Locatie":"Plantsoen","Omheining":"Geen","Ondergrond":"Gras","Verlichting":"Nee","Overdekt":"Nee","Omschrijving":"Voetbalveld","Oppervlak":42,"Foto":"WVospad_2.jpg"}},{"id":118,"type":"Feature","geometry":{"type":"Point","coordinates":[4.9797502,52.297699]},"properties":{"Naam":"PARKHOF","Sportvoorziening":"Basketbal","Locatie":"Plein","Omheining":"Kooi open","Ondergrond":"Asfalt","Verlichting":"Nee","Overdekt":"Nee","Omschrijving":"Basketbalveld met belijning","Oppervlak":1053,"Foto":"Parkhof_2.jpg"}},{"id":119,"type":"Feature","geometry":{"type":"Point","coordinates":[4.9810901,52.3003998]},"properties":{"Naam":"VEENENDAALPLEIN","Sportvoorziening":"Basketbal","Locatie":"Plein","Omheining":"Geen","Ondergrond":"Stoeptegels","Verlichting":"Nee","Overdekt":"Nee","Omschrijving":"Basketbalpaal","Oppervlak":56,"Foto":"Veenendaalplein.jpg"}},{"id":120,"type":"Feature","geometry":{"type":"Point","coordinates":[4.9723301,52.3027992]},"properties":{"Naam":"REIGERSBOSPAD","Sportvoorziening":"Basketbal","Locatie":"Park","Omheining":"Hekwerk laag","Ondergrond":"Asfalt","Verlichting":"Nee","Overdekt":"Nee","Omschrijving":"Basketbalveld met belijning","Oppervlak":480,"Foto":"Reigersbospad_5.jpg"}},{"id":121,"type":"Feature","geometry":{"type":"Point","coordinates":[4.9773302,52.3067017]},"properties":{"Naam":"LEERDAMHOF","Sportvoorziening":"Basketbal","Locatie":"Plantsoen","Omheining":"Geen","Ondergrond":"Asfalt","Verlichting":"Nee","Overdekt":"Nee","Omschrijving":"Basketbalveld, zitbanken naast veld","Oppervlak":497,"Foto":"Leerdamhof.jpg"}},{"id":122,"type":"Feature","geometry":{"type":"Point","coordinates":[4.9798799,52.3087997]},"properties":{"Naam":"LEKSMONDPLEIN","Sportvoorziening":"Basketbal","Locatie":"Schoolplein","Omheining":"Geen","Ondergrond":"Asfalt","Verlichting":"Nee","Overdekt":"Nee","Omschrijving":"Basketbalveld met belijning","Oppervlak":363,"Foto":"Leksmondplein.jpg"}},{"id":123,"type":"Feature","geometry":{"type":"Point","coordinates":[4.9860001,52.3162994]},"properties":{"Naam":"KOUWENOORD","Sportvoorziening":"Basketbal","Locatie":"Plantsoen","Omheining":"Geen","Ondergrond":"Asfalt","Verlichting":"Nee","Overdekt":"Nee","Omschrijving":"Basketbalveld","Oppervlak":360,"Foto":"Kouwenoord.jpg"}},{"id":124,"type":"Feature","geometry":{"type":"Point","coordinates":[4.9913998,52.3175011]},"properties":{"Naam":"KANTERSHOF","Sportvoorziening":"Basketbal","Locatie":"Plein","Omheining":"Geen","Ondergrond":"Stoeptegels","Verlichting":"Nee","Overdekt":"Nee","Omschrijving":"Basketbalveld met belijning, zitbanken naast veld","Oppervlak":533,"Foto":"Kantershof.jpg"}},{"id":125,"type":"Feature","geometry":{"type":"Point","coordinates":[4.9826798,52.324501]},"properties":{"Naam":"GARSTKAMP","Sportvoorziening":"Basketbal","Locatie":"Schoolplein","Omheining":"Kooi open","Ondergrond":"Asfalt","Verlichting":"Nee","Overdekt":"Nee","Omschrijving":"Basketbalveld met belijning","Oppervlak":551,"Foto":"Garstkamp.jpg"}},{"id":126,"type":"Feature","geometry":{"type":"Point","coordinates":[4.9797502,52.3176003]},"properties":{"Naam":"KRAAIENNEST","Sportvoorziening":"Basketbal","Locatie":"Plein","Omheining":"Kooi open","Ondergrond":"Asfalt","Verlichting":"Nee","Overdekt":"Nee","Omschrijving":"Basketbalveld met belijning","Oppervlak":350,"Foto":"Kraaiennest_7.jpg"}},{"id":127,"type":"Feature","geometry":{"type":"Point","coordinates":[4.9728699,52.3151016]},"properties":{"Naam":"KORTVOORT","Sportvoorziening":"Basketbal","Locatie":"Schoolplein","Omheining":"Geen","Ondergrond":"Stoeptegels","Verlichting":"Nee","Overdekt":"Nee","Omschrijving":"Basketbalveld","Oppervlak":323,"Foto":"Kortvoort.jpg"}},{"id":128,"type":"Feature","geometry":{"type":"Point","coordinates":[4.9661899,52.3227005]},"properties":{"Naam":"KARTINISTRAAT","Sportvoorziening":"Basketbal","Locatie":"Plantsoen","Omheining":"Ballenvangers","Ondergrond":"Asfalt","Verlichting":"Nee","Overdekt":"Nee","Omschrijving":"Basketbalveld combi-veld, zitbanken naast veld","Oppervlak":469,"Foto":"RAKartinistraat_1.jpg"}},{"id":129,"type":"Feature","geometry":{"type":"Point","coordinates":[4.9660001,52.3193016]},"properties":{"Naam":"GULDENKRUISPAD","Sportvoorziening":"Basketbal","Locatie":"Plantsoen","Omheining":"Geen","Ondergrond":"Stoeptegels","Verlichting":"Nee","Overdekt":"Nee","Omschrijving":"Basketbalveld, zitbanken naast veld","Oppervlak":546,"Foto":"Guldenkruispad_2.jpg"}},{"id":130,"type":"Feature","geometry":{"type":"Point","coordinates":[4.9593101,52.3238983]},"properties":{"Naam":"ECHTENSTEIN","Sportvoorziening":"Basketbal","Locatie":"Schoolplein","Omheining":"Geen","Ondergrond":"Stoeptegels","Verlichting":"Nee","Overdekt":"Nee","Omschrijving":"Basketbalveld, zitbanken naast veld","Oppervlak":394,"Foto":"Echtenstein.jpg"}},{"id":131,"type":"Feature","geometry":{"type":"Point","coordinates":[4.9313698,52.3647003]},"properties":{"Naam":"BANKASTRAAT","Sportvoorziening":"Basketbal","Locatie":"Stoep","Omheining":"Gedeeltelijk","Ondergrond":"Stoeptegels","Verlichting":"Nee","Overdekt":"Nee","Omschrijving":"Basketbalpaal","Oppervlak":217,"Foto":"Bankastraat_2.jpg"}},{"id":132,"type":"Feature","geometry":{"type":"Point","coordinates":[4.9333501,52.3600006]},"properties":{"Naam":"MINAHASSASTRAAT","Sportvoorziening":"Basketbal","Locatie":"Stoep","Omheining":"Gedeeltelijk","Ondergrond":"Stoeptegels","Verlichting":"Nee","Overdekt":"Nee","Omschrijving":"Basketbalpaal, combi-veld","Oppervlak":94,"Foto":"Minahassastraat.jpg"}},{"id":133,"type":"Feature","geometry":{"type":"Point","coordinates":[4.93717,52.3596992]},"properties":{"Naam":"AMBONPLEIN","Sportvoorziening":"Basketbal","Locatie":"Plein","Omheining":"Hekwerk laag","Ondergrond":"Klinkers","Verlichting":"Nee","Overdekt":"Nee","Omschrijving":"Basketbalveld, zitbanken naast veld","Oppervlak":605,"Foto":"Ambonplein.jpg"}},{"id":134,"type":"Feature","geometry":{"type":"Point","coordinates":[4.9409599,52.3608017]},"properties":{"Naam":"BATAVIA","Sportvoorziening":"Basketbal","Locatie":"Speeltuin","Omheining":"Geen","Ondergrond":"Asfalt","Verlichting":"Nee","Overdekt":"Nee","Omschrijving":"Basketbalpaal, speeltuin Batavia","Oppervlak":206,"Foto":"Batavia_2.jpg"}},{"id":135,"type":"Feature","geometry":{"type":"Point","coordinates":[4.94314,52.3599014]},"properties":{"Naam":"SUMATRAPLANTSOEN","Sportvoorziening":"Basketbal","Locatie":"Plein","Omheining":"Geen","Ondergrond":"Asfalt","Verlichting":"Nee","Overdekt":"Nee","Omschrijving":"Basketbalveld met belijning, zitbanken naast veld","Oppervlak":373,"Foto":"Sumatraplantsoen_2.jpg"}},{"id":136,"type":"Feature","geometry":{"type":"Point","coordinates":[4.94662,52.3634987]},"properties":{"Naam":"KRAMATWEG","Sportvoorziening":"Basketbal","Locatie":"Plantsoen","Omheining":"Geen","Ondergrond":"Asfalt","Verlichting":"Nee","Overdekt":"Nee","Omschrijving":"Basketbalveld met belijning","Oppervlak":560,"Foto":"Kramatweg_2.jpg"}},{"id":137,"type":"Feature","geometry":{"type":"Point","coordinates":[4.9407101,52.3646011]},"properties":{"Naam":"MAKASSERPLEIN","Sportvoorziening":"Basketbal","Locatie":"Plein","Omheining":"Gedeeltelijk","Ondergrond":"Stoeptegels","Verlichting":"Nee","Overdekt":"Nee","Omschrijving":"Basketbalpaal, zitbanken naast veld","Oppervlak":155,"Foto":"Makasserplein_2.jpg"}},{"id":138,"type":"Feature","geometry":{"type":"Point","coordinates":[4.9425001,52.3678017]},"properties":{"Naam":"HILDO KROPPLEIN","Sportvoorziening":"Basketbal","Locatie":"Plantsoen","Omheining":"Geen","Ondergrond":"Asfalt","Verlichting":"Ja","Overdekt":"Nee","Omschrijving":"Basketbalveld, veld ligt verdiept, zitbanken naast veld, combi-veld","Oppervlak":296,"Foto":"HildoKropplein_2.jpg"}},{"id":139,"type":"Feature","geometry":{"type":"Point","coordinates":[4.9359899,52.3700981]},"properties":{"Naam":"Combiveld Borneokade","Sportvoorziening":"Basketbal","Locatie":"Plein","Omheining":"Geen","Ondergrond":"Asfalt","Verlichting":"Nee","Overdekt":"Nee","Omschrijving":"Combiveld Basketbal\/Voetbal","Oppervlak":400,"Foto":""}},{"id":140,"type":"Feature","geometry":{"type":"Point","coordinates":[4.9391298,52.3712997]},"properties":{"Naam":"BORNEOLAAN","Sportvoorziening":"Basketbal","Locatie":"Stoep","Omheining":"Kooi gesloten","Ondergrond":"Asfalt","Verlichting":"Ja","Overdekt":"Nee","Omschrijving":"Basketbalveld, tevens voetbalveld, zitbanken naast veld, combi-veld","Oppervlak":222,"Foto":"Borneolaan.jpg"}},{"id":141,"type":"Feature","geometry":{"type":"Point","coordinates":[4.9356098,52.3736992]},"properties":{"Naam":"RIETLANDPARK","Sportvoorziening":"Basketbal","Locatie":"Plantsoen","Omheining":"Geen","Ondergrond":"Asfalt","Verlichting":"Ja","Overdekt":"Nee","Omschrijving":"Basketbalveld met belijning, zitbanken naast veld","Oppervlak":433,"Foto":"Rietlandpark_3.jpg"}},{"id":143,"type":"Feature","geometry":{"type":"Point","coordinates":[5.0002298,52.3546982]},"properties":{"Naam":"ERICH SALOMONSTRAAT","Sportvoorziening":"Basketbal","Locatie":"Plein","Omheining":"Kooi gesloten","Ondergrond":"Asfalt","Verlichting":"Ja","Overdekt":"Nee","Omschrijving":"Basketbalveld met belijning","Oppervlak":550,"Foto":"ErichSalomonstraat.jpg"}},{"id":144,"type":"Feature","geometry":{"type":"Point","coordinates":[4.9298301,52.3636017]},"properties":{"Naam":"WAGENAARSTRAAT","Sportvoorziening":"Basketbal","Locatie":"Stoep","Omheining":"Kooi open","Ondergrond":"Stoeptegels","Verlichting":"Nee","Overdekt":"Nee","Omschrijving":"Basketbalveld, zitbanken naast veld, combi-veld","Oppervlak":237,"Foto":"Wagenaarstraat.jpg"}},{"id":146,"type":"Feature","geometry":{"type":"Point","coordinates":[4.9147401,52.3562012]},"properties":{"Naam":"IEPENPLEIN","Sportvoorziening":"Basketbal","Locatie":"Plein","Omheining":"Geen","Ondergrond":"Stoeptegels","Verlichting":"Nee","Overdekt":"Nee","Omschrijving":"Basketbalveld, zitbanken naast veld","Oppervlak":347,"Foto":"Iepenplein.jpg"}},{"id":147,"type":"Feature","geometry":{"type":"Point","coordinates":[4.9188499,52.3553009]},"properties":{"Naam":"MARITZSTRAAT","Sportvoorziening":"Basketbal","Locatie":"Plantsoen","Omheining":"Geen","Ondergrond":"Asfalt","Verlichting":"Ja","Overdekt":"Nee","Omschrijving":"Basketbalpaal met belijning, combi-veld","Oppervlak":212,"Foto":"Maritzstraat_2.jpg"}},{"id":150,"type":"Feature","geometry":{"type":"Point","coordinates":[4.9253201,52.3572006]},"properties":{"Naam":"CILIERSSTRAAT","Sportvoorziening":"Basketbal","Locatie":"Plantsoen","Omheining":"Hekwerk laag","Ondergrond":"Asfalt","Verlichting":"Nee","Overdekt":"Nee","Omschrijving":"Basketbalpaal met belijning, zitbanken naast veld","Oppervlak":317,"Foto":"Cilliersstraat.jpg"}},{"id":151,"type":"Feature","geometry":{"type":"Point","coordinates":[4.9300799,52.3582001]},"properties":{"Naam":"POLDERWEG","Sportvoorziening":"Basketbal","Locatie":"Stoep","Omheining":"Kooi open","Ondergrond":"Asfalt","Verlichting":"Nee","Overdekt":"Nee","Omschrijving":"Basketbalveld met belijning, combi-veld","Oppervlak":400,"Foto":"Polderweg_2.jpg"}},{"id":152,"type":"Feature","geometry":{"type":"Point","coordinates":[4.9308901,52.3560982]},"properties":{"Naam":"LINNAEUSKADE","Sportvoorziening":"Basketbal","Locatie":"Plantsoen","Omheining":"Kooi open","Ondergrond":"Stoeptegels","Verlichting":"Nee","Overdekt":"Nee","Omschrijving":"Basketbalveld, zitbanken naast veld, combi-veld","Oppervlak":145,"Foto":"Linnaeuskade.jpg"}},{"id":153,"type":"Feature","geometry":{"type":"Point","coordinates":[4.9393601,52.3516998]},"properties":{"Naam":"LINNAEUSPARKKWARTIER","Sportvoorziening":"Basketbal","Locatie":"Speeltuin","Omheining":"Ballenvangers","Ondergrond":"Asfalt","Verlichting":"Nee","Overdekt":"Nee","Omschrijving":"Basketbalveld met belijning, speeltuin Linnaeusparkkwartier, zitbanken naast het veld, combi-veld","Oppervlak":842,"Foto":"Linnaeusparkkwartier_2.jpg"}},{"id":154,"type":"Feature","geometry":{"type":"Point","coordinates":[4.9345198,52.3484001]},"properties":{"Naam":"OSTWALDSTRAAT","Sportvoorziening":"Basketbal","Locatie":"Plein","Omheining":"Geen","Ondergrond":"Stoeptegels","Verlichting":"Nee","Overdekt":"Nee","Omschrijving":"Basketbalveld","Oppervlak":506,"Foto":"Ostwaldstraat_3.jpg"}},{"id":155,"type":"Feature","geometry":{"type":"Point","coordinates":[4.94838,52.3391991]},"properties":{"Naam":"SPEELTUINOOST","Sportvoorziening":"Basketbal","Locatie":"Speeltuin","Omheining":"Hekwerk laag","Ondergrond":"Asfalt","Verlichting":"Ja","Overdekt":"Nee","Omschrijving":"Basketbalveld met belijning, speeltuin Oost, zitbanken naast veld","Oppervlak":429,"Foto":"SpeeltuinOost_2.jpg"}},{"id":156,"type":"Feature","geometry":{"type":"Point","coordinates":[4.92134,52.3432007]},"properties":{"Naam":"RUSTHOFSTRAAT","Sportvoorziening":"Basketbal","Locatie":"Plantsoen","Omheining":"Ballenvangers","Ondergrond":"Stoeptegels","Verlichting":"Nee","Overdekt":"Nee","Omschrijving":"Basketbalveld met belijning, zitbanken naast veld","Oppervlak":98,"Foto":"Rusthofstraat_2.jpg"}},{"id":157,"type":"Feature","geometry":{"type":"Point","coordinates":[4.9247098,52.3521996]},"properties":{"Naam":"DONBOSCO","Sportvoorziening":"Basketbal","Locatie":"Speeltuin","Omheining":"Hekwerk laag","Ondergrond":"Asfalt","Verlichting":"Nee","Overdekt":"Nee","Omschrijving":"Basketbalveld, speeltuin Don Bosco, zitbanken naast veld, combi-veld","Oppervlak":476,"Foto":"DonBosco_2.jpg"}},{"id":158,"type":"Feature","geometry":{"type":"Point","coordinates":[4.91992,52.3539009]},"properties":{"Naam":"KRUGERPLEIN","Sportvoorziening":"Basketbal","Locatie":"Plein","Omheining":"Geen","Ondergrond":"Asfalt","Verlichting":"Nee","Overdekt":"Nee","Omschrijving":"Basketbalveld, zitbanken naast veld","Oppervlak":531,"Foto":"Krugerplein.jpg"}},{"id":159,"type":"Feature","geometry":{"type":"Point","coordinates":[4.9011904,52.3719541]},"properties":{"Naam":"NIEUWMARKT","Sportvoorziening":"Basketbal","Locatie":"Plein","Omheining":"Kooi open","Ondergrond":"Asfalt","Verlichting":"Ja","Overdekt":"Nee","Omschrijving":"Basketbalpaal, originele oplossing veldafzetting (zie foto), zitbanken naast veld","Oppervlak":341,"Foto":"Nieuwmarkt.jpg"}},{"id":160,"type":"Feature","geometry":{"type":"Point","coordinates":[4.8930202,52.3806]},"properties":{"Naam":"PYRAMIDE","Sportvoorziening":"Basketbal","Locatie":"Speeltuin","Omheining":"Kooi open","Ondergrond":"Asfalt","Verlichting":"Nee","Overdekt":"Nee","Omschrijving":"Basketbalveld met belijning, speeltuin Pyramide, zitbanken naast veld, combi-veld","Oppervlak":931,"Foto":"Pyramide_2.jpg"}},{"id":161,"type":"Feature","geometry":{"type":"Point","coordinates":[4.8823199,52.3792]},"properties":{"Naam":"NOORDERSPEELTUIN","Sportvoorziening":"Basketbal","Locatie":"Speeltuin","Omheining":"Hekwerk laag","Ondergrond":"Asfalt","Verlichting":"Nee","Overdekt":"Nee","Omschrijving":"Basketbalveld, speeltuin NoorderSpeeltuin, zitbanken naast veld, combi-veld","Oppervlak":334,"Foto":"NoorderSpeeltuin_2.jpg"}},{"id":162,"type":"Feature","geometry":{"type":"Point","coordinates":[4.8809199,52.3819008]},"properties":{"Naam":"MARNIXPLANTSOEN","Sportvoorziening":"Basketbal","Locatie":"Plantsoen","Omheining":"Hekwerk laag","Ondergrond":"Asfalt","Verlichting":"Nee","Overdekt":"Nee","Omschrijving":"Basketbalveld, zitbanken naast veld","Oppervlak":265,"Foto":"Marnixplantsoen_1.jpg"}},{"id":164,"type":"Feature","geometry":{"type":"Point","coordinates":[4.89252,52.358799]},"properties":{"Naam":"UJKLAREN","Sportvoorziening":"Basketbal","Locatie":"Speeltuin","Omheining":"Geen","Ondergrond":"Stoeptegels","Verlichting":"Nee","Overdekt":"Nee","Omschrijving":"Basketbalpaal, speeltuin U J Klaren, zitbanken naast veld","Oppervlak":297,"Foto":"UJKlaren_2.jpg"}},{"id":165,"type":"Feature","geometry":{"type":"Point","coordinates":[4.92101,52.3670998]},"properties":{"Naam":"GESCHUTSWERF","Sportvoorziening":"Basketbal","Locatie":"Plein","Omheining":"Kooi gesloten","Ondergrond":"Asfalt","Verlichting":"Nee","Overdekt":"Nee","Omschrijving":"Basketbalveld, zitbanken naast veld, combi-veld","Oppervlak":712,"Foto":"Geschutswerf_2.jpg"}},{"id":166,"type":"Feature","geometry":{"type":"Point","coordinates":[4.9204898,52.3707008]},"properties":{"Naam":"Kleine Wittenburgerstraat","Sportvoorziening":"Basketbal","Locatie":"Plein","Omheining":"Hekwerk laag","Ondergrond":"Asfalt","Verlichting":"Nee","Overdekt":"Nee","Omschrijving":"Basketbalveld met belijning, zitbanken naast veld","Oppervlak":437,"Foto":"KWittenburgerstraat.jpg"}},{"id":167,"type":"Feature","geometry":{"type":"Point","coordinates":[4.9172101,52.3714981]},"properties":{"Naam":"BIJLTJESPAD","Sportvoorziening":"Basketbal","Locatie":"Plantsoen","Omheining":"Geen","Ondergrond":"Asfalt","Verlichting":"Ja","Overdekt":"Nee","Omschrijving":"Basketbalveld, veld ligt verdiept, zitbanken naast veld","Oppervlak":372,"Foto":"Bijltjespad.jpg"}},{"id":168,"type":"Feature","geometry":{"type":"Point","coordinates":[4.9264398,52.3678017]},"properties":{"Naam":"OOSTERSPEELTUIN","Sportvoorziening":"Basketbal","Locatie":"Speeltuin","Omheining":"Geen","Ondergrond":"Stoeptegels","Verlichting":"Nee","Overdekt":"Nee","Omschrijving":"Basketbalveld, speeltuin Ooster Speeltuin, zitbanken naast veld","Oppervlak":294,"Foto":"OosterSpeeltuin.jpg"}},{"id":169,"type":"Feature","geometry":{"type":"Point","coordinates":[4.9079399,52.3476982]},"properties":{"Naam":"MEERHUIZENPLEIN","Sportvoorziening":"Basketbal","Locatie":"Plein","Omheining":"Ballenvangers","Ondergrond":"Stoeptegels","Verlichting":"Nee","Overdekt":"Nee","Omschrijving":"Basketbalveld, veld ligt verdiept, zitbanken naast veld, combi-veld, ballenvangers (1 zijde)","Oppervlak":355,"Foto":"Meerhuizenplein.jpg"}},{"id":170,"type":"Feature","geometry":{"type":"Point","coordinates":[4.8964801,52.3460007]},"properties":{"Naam":"JEKERSTRAAT","Sportvoorziening":"Basketbal","Locatie":"Plantsoen","Omheining":"Hekwerk laag","Ondergrond":"Stoeptegels","Verlichting":"Nee","Overdekt":"Nee","Omschrijving":"Basketbalveld, combi-veld","Oppervlak":580,"Foto":"Jekerstraat_2.jpg"}},{"id":171,"type":"Feature","geometry":{"type":"Point","coordinates":[4.8971601,52.3442001]},"properties":{"Naam":"ROERSTRAAT","Sportvoorziening":"Basketbal","Locatie":"Plein","Omheining":"Hekwerk laag","Ondergrond":"Stoeptegels","Verlichting":"Nee","Overdekt":"Nee","Omschrijving":"Basketbalveld, zitbanken naast veld","Oppervlak":544,"Foto":"Roerstraat.jpg"}},{"id":172,"type":"Feature","geometry":{"type":"Point","coordinates":[4.8994398,52.3408012]},"properties":{"Naam":"KENNEDYPLANTSOEN","Sportvoorziening":"Basketbal","Locatie":"Plantsoen","Omheining":"Geen","Ondergrond":"Stoeptegels","Verlichting":"Nee","Overdekt":"Nee","Omschrijving":"Basketbalveld, kleine doelen, veld ligt verdiept, zitbanken naast veld, combi-veld","Oppervlak":291,"Foto":"PKennedyplantsoen_2.jpg"}},{"id":173,"type":"Feature","geometry":{"type":"Point","coordinates":[4.90762,52.3445015]},"properties":{"Naam":"GAASPSTRAAT","Sportvoorziening":"Basketbal","Locatie":"Speeltuin","Omheining":"Ballenvangers","Ondergrond":"Asfalt","Verlichting":"Nee","Overdekt":"Nee","Omschrijving":"Basketbalveld, speeltuin Amsterdam Zuid, zitbanken naast veld","Oppervlak":1344,"Foto":"Gaaspstraat_2.jpg"}},{"id":174,"type":"Feature","geometry":{"type":"Point","coordinates":[4.8809299,52.3241997]},"properties":{"Naam":"OPVELD","Sportvoorziening":"Basketbal","Locatie":"Plantsoen","Omheining":"Geen","Ondergrond":"Asfalt","Verlichting":"Nee","Overdekt":"Nee","Omschrijving":"Basketbalpaal, veld ligt verdiept, zitbanken naast veld","Oppervlak":125,"Foto":"Opveld_2.jpg"}},{"id":175,"type":"Feature","geometry":{"type":"Point","coordinates":[4.8709602,52.3264008]},"properties":{"Naam":"BRITTENBURG","Sportvoorziening":"Basketbal","Locatie":"Plantsoen","Omheining":"Ballenvangers","Ondergrond":"Asfalt","Verlichting":"Nee","Overdekt":"Nee","Omschrijving":"Basketbalveld met belijning, zitbanken naast veld","Oppervlak":347,"Foto":"Brittenburg.jpg"}},{"id":176,"type":"Feature","geometry":{"type":"Point","coordinates":[4.8747568,52.3269005]},"properties":{"Naam":"BOECKENBURG","Sportvoorziening":"Basketbal","Locatie":"Schoolplein","Omheining":"Hekwerk laag","Ondergrond":"Stoeptegels","Verlichting":"Nee","Overdekt":"Nee","Omschrijving":"Basketbalveld","Oppervlak":239,"Foto":"Broeckenburg.jpg"}},{"id":177,"type":"Feature","geometry":{"type":"Point","coordinates":[4.8778,52.3272018]},"properties":{"Naam":"ZEELANDSTRAAT","Sportvoorziening":"Basketbal","Locatie":"Plantsoen","Omheining":"Geen","Ondergrond":"Stoeptegels","Verlichting":"Nee","Overdekt":"Nee","Omschrijving":"Basketbalpaal, zitbanken naast veld","Oppervlak":86,"Foto":"Zeelandstraat_2.jpg"}},{"id":178,"type":"Feature","geometry":{"type":"Point","coordinates":[4.8613601,52.3258018]},"properties":{"Naam":"GOUDESTEIN","Sportvoorziening":"Basketbal","Locatie":"Speeltuin","Omheining":"Ballenvangers","Ondergrond":"Asfalt","Verlichting":"Nee","Overdekt":"Nee","Omschrijving":"Basketbalpaal met belijning, speeltuin Goudestein, zitbanken naast veld","Oppervlak":566,"Foto":"Goudestein_2.jpg"}},{"id":179,"type":"Feature","geometry":{"type":"Point","coordinates":[4.8666801,52.3312988]},"properties":{"Naam":"BILJOEN","Sportvoorziening":"Basketbal","Locatie":"Plein","Omheining":"Geen","Ondergrond":"Stoeptegels","Verlichting":"Nee","Overdekt":"Nee","Omschrijving":"Basketbalpaal, zitbanken naast veld","Oppervlak":77,"Foto":"Biljoen.jpg"}},{"id":181,"type":"Feature","geometry":{"type":"Point","coordinates":[4.8930802,52.3455009]},"properties":{"Naam":"DINTELSTRAAT","Sportvoorziening":"Basketbal","Locatie":"Schoolplein","Omheining":"Geen","Ondergrond":"Stoeptegels","Verlichting":"Nee","Overdekt":"Nee","Omschrijving":"Basketbalveld, zitbanken naast veld","Oppervlak":550,"Foto":"Dintelstraat.jpg"}},{"id":183,"type":"Feature","geometry":{"type":"Point","coordinates":[4.9352398,52.3652992]},"properties":{"Naam":"TIMORPLEIN","Sportvoorziening":"Basketbal","Locatie":"Plein","Omheining":"Hekwerk","Ondergrond":"Asfalt","Verlichting":"Nee","Overdekt":"Nee","Omschrijving":"Een basketbalpaal","Oppervlak":258,"Foto":""}},{"id":184,"type":"Feature","geometry":{"type":"Point","coordinates":[4.7972698,52.3563004]},"properties":{"Naam":"EKINGENSTRAAT","Sportvoorziening":"Basketbal","Locatie":"Stoep","Omheining":"Geen","Ondergrond":"Asfalt","Verlichting":"Nee","Overdekt":"Nee","Omschrijving":"Basketbalveld dit najaar klaar","Oppervlak":213,"Foto":""}},{"id":185,"type":"Feature","geometry":{"type":"Point","coordinates":[4.8864102,52.3827019]},"properties":{"Naam":"VINKENSTRAAT","Sportvoorziening":"Basketbal","Locatie":"Stoep","Omheining":"Hekwerk laag","Ondergrond":"Tegels","Verlichting":"Nee","Overdekt":"Nee","Omschrijving":"Basketbalpaal","Oppervlak":32,"Foto":""}},{"id":186,"type":"Feature","geometry":{"type":"Point","coordinates":[4.95186,52.3474998]},"properties":{"Naam":"VELD 14","Sportvoorziening":"Basketbal","Locatie":"Sportveld","Omheining":"Kooi gesloten","Ondergrond":"Asfalt","Verlichting":"Ja","Overdekt":"Nee","Omschrijving":"Basketbalveld, combi-veld","Oppervlak":713,"Foto":""}},{"id":187,"type":"Feature","geometry":{"type":"Point","coordinates":[4.88621,52.4220009]},"properties":{"Naam":"BELOEGASTRAAT","Sportvoorziening":"Basketbal","Locatie":"Plantsoen","Omheining":"Ballenvangers","Ondergrond":"Asfalt","Verlichting":"Nee","Overdekt":"Nee","Omschrijving":"Basketbalveld","Oppervlak":482,"Foto":"Beloegastraat.jpg"}},{"id":188,"type":"Feature","geometry":{"type":"Point","coordinates":[4.8867402,52.4183998]},"properties":{"Naam":"PETMOLEN","Sportvoorziening":"Voetbal","Locatie":"Plantsoen","Omheining":"Geen","Ondergrond":"Gras","Verlichting":"Nee","Overdekt":"Nee","Omschrijving":"Voetbalveld, kleine doelen","Oppervlak":450,"Foto":"Petmolen.jpg"}},{"id":189,"type":"Feature","geometry":{"type":"Point","coordinates":[4.8898602,52.4192009]},"properties":{"Naam":"WATERMOLEN","Sportvoorziening":"Voetbal","Locatie":"Plantsoen","Omheining":"Geen","Ondergrond":"Gras","Verlichting":"Nee","Overdekt":"Nee","Omschrijving":"Voetbalveld","Oppervlak":893,"Foto":"Watermolen.jpg"}},{"id":190,"type":"Feature","geometry":{"type":"Point","coordinates":[4.9503999,52.3889008]},"properties":{"Naam":"NIEUWENDAM","Sportvoorziening":"Voetbal","Locatie":"Speeltuin","Omheining":"Ballenvangers","Ondergrond":"Asfalt","Verlichting":"Ja","Overdekt":"Nee","Omschrijving":"Voetbalveld, kleine doelen, speeltuin Nieuwendam","Oppervlak":842,"Foto":"Nieuwendam_2.jpg"}},{"id":191,"type":"Feature","geometry":{"type":"Point","coordinates":[4.9562201,52.3900986]},"properties":{"Naam":"WERENGOUW","Sportvoorziening":"Voetbal","Locatie":"Plein","Omheining":"Ballenvangers","Ondergrond":"Stoeptegels","Verlichting":"Nee","Overdekt":"Nee","Omschrijving":"Voetbalveld","Oppervlak":673,"Foto":"Werengouw.jpg"}},{"id":192,"type":"Feature","geometry":{"type":"Point","coordinates":[4.9568601,52.3909988]},"properties":{"Naam":"BUSSUMSTRAAT","Sportvoorziening":"Voetbal","Locatie":"Plein","Omheining":"Ballenvangers","Ondergrond":"Stoeptegels","Verlichting":"Nee","Overdekt":"Nee","Omschrijving":"Voetbaldoel, kleine doelen, veld ligt verdiept","Oppervlak":555,"Foto":"Bussumstraat.jpg"}},{"id":193,"type":"Feature","geometry":{"type":"Point","coordinates":[4.9603601,52.3919983]},"properties":{"Naam":"CORVERSBOSSTRAAT","Sportvoorziening":"Voetbal","Locatie":"Schoolplein","Omheining":"Ballenvangers","Ondergrond":"Stoeptegels","Verlichting":"Nee","Overdekt":"Nee","Omschrijving":"Voetbalveld, kleine doelen, veld gedeeltelijk afgezet met spijlenhekwerk","Oppervlak":586,"Foto":"Corversbosstraat_2.jpg"}},{"id":194,"type":"Feature","geometry":{"type":"Point","coordinates":[4.95438,52.3965988]},"properties":{"Naam":"PETTENSTRAAT","Sportvoorziening":"Voetbal","Locatie":"Stoep","Omheining":"Geen","Ondergrond":"Stoeptegels","Verlichting":"Nee","Overdekt":"Nee","Omschrijving":"Voetbalveld, kleine doelen, laag hek achter 1 doel","Oppervlak":383,"Foto":"Pettenstraat.jpg"}},{"id":195,"type":"Feature","geometry":{"type":"Point","coordinates":[4.9466701,52.4028015]},"properties":{"Naam":"ELPERMEER","Sportvoorziening":"Voetbal","Locatie":"Plantsoen","Omheining":"Geen","Ondergrond":"Stoeptegels","Verlichting":"Nee","Overdekt":"Nee","Omschrijving":"Voetbalveld, zitbanken naast veld, combi-veld","Oppervlak":366,"Foto":"Elpermeer.jpg"}},{"id":196,"type":"Feature","geometry":{"type":"Point","coordinates":[4.9409399,52.4016991]},"properties":{"Naam":"MARIENDAAL","Sportvoorziening":"Voetbal","Locatie":"Plantsoen","Omheining":"Ballenvangers","Ondergrond":"Asfalt","Verlichting":"Nee","Overdekt":"Nee","Omschrijving":"Voetbalveld, 2 lange zijden laag spijlenhekwerk, zitbanken naast veld","Oppervlak":817,"Foto":"Mariendaal.jpg"}},{"id":197,"type":"Feature","geometry":{"type":"Point","coordinates":[4.9112601,52.3828011]},"properties":{"Naam":"IJPLEIN","Sportvoorziening":"Voetbal","Locatie":"Plantsoen","Omheining":"Geen","Ondergrond":"Asfalt","Verlichting":"Nee","Overdekt":"Nee","Omschrijving":"Voetbalveld, kleine doelen","Oppervlak":290,"Foto":"IJplein_2.jpg"}},{"id":198,"type":"Feature","geometry":{"type":"Point","coordinates":[4.9144201,52.384201]},"properties":{"Naam":"SPREEUWENPARK","Sportvoorziening":"Voetbal","Locatie":"Plantsoen","Omheining":"Kooi open","Ondergrond":"Asfalt","Verlichting":"Nee","Overdekt":"Nee","Omschrijving":"Voetbalveld, combi-veld","Oppervlak":532,"Foto":"Spreeuwenpark_2.jpg"}},{"id":199,"type":"Feature","geometry":{"type":"Point","coordinates":[4.91787,52.3838997]},"properties":{"Naam":"KETELMAKERIJ","Sportvoorziening":"Voetbal","Locatie":"Stoep","Omheining":"Kooi gesloten","Ondergrond":"Stoeptegels","Verlichting":"Nee","Overdekt":"Nee","Omschrijving":"Voetbalveld, kleine doelen, zitbanken naast veld","Oppervlak":319,"Foto":"Ketelmakerij.jpg"}},{"id":200,"type":"Feature","geometry":{"type":"Point","coordinates":[4.9224801,52.388401]},"properties":{"Naam":"MEEUWENPLEIN","Sportvoorziening":"Voetbal","Locatie":"Plantsoen","Omheining":"Ballenvangers","Ondergrond":"Asfalt","Verlichting":"Nee","Overdekt":"Nee","Omschrijving":"Voetbalveld, zitbanken naast veld","Oppervlak":911,"Foto":"Meeuwenplein.jpg"}},{"id":201,"type":"Feature","geometry":{"type":"Point","coordinates":[4.9309902,52.3919983]},"properties":{"Naam":"NOORDERLING","Sportvoorziening":"Voetbal","Locatie":"Speeltuin","Omheining":"Kooi gesloten","Ondergrond":"Asfalt","Verlichting":"Ja","Overdekt":"Nee","Omschrijving":"Voetbalveld, kleine doelen, speeltuin De Noorderling","Oppervlak":635,"Foto":"DeNoorderling_2.jpg"}},{"id":202,"type":"Feature","geometry":{"type":"Point","coordinates":[4.9260302,52.3927994]},"properties":{"Naam":"TEXELPLEIN","Sportvoorziening":"Voetbal","Locatie":"Plein","Omheining":"Kooi gesloten","Ondergrond":"Stoeptegels","Verlichting":"Nee","Overdekt":"Nee","Omschrijving":"Voetbalveld, kleine doelen","Oppervlak":211,"Foto":"Texelplein.jpg"}},{"id":203,"type":"Feature","geometry":{"type":"Point","coordinates":[4.93151,52.398201]},"properties":{"Naam":"LOENERMARK","Sportvoorziening":"Voetbal","Locatie":"Plantsoen","Omheining":"Ballenvangers","Ondergrond":"Asfalt","Verlichting":"Nee","Overdekt":"Nee","Omschrijving":"Voetbalveld, kleine doelen","Oppervlak":480,"Foto":"Loenermark_2.jpg"}},{"id":204,"type":"Feature","geometry":{"type":"Point","coordinates":[4.9344301,52.3963013]},"properties":{"Naam":"BREEDVELD","Sportvoorziening":"Voetbal","Locatie":"Plantsoen","Omheining":"Geen","Ondergrond":"Onverhard","Verlichting":"Nee","Overdekt":"Nee","Omschrijving":"Voetbalveld","Oppervlak":1013,"Foto":"Breedveld_1.jpg"}},{"id":205,"type":"Feature","geometry":{"type":"Point","coordinates":[4.9214702,52.4071999]},"properties":{"Naam":"DRIEMASTER","Sportvoorziening":"Voetbal","Locatie":"Schoolplein","Omheining":"Hekwerk laag","Ondergrond":"Stoeptegels","Verlichting":"Nee","Overdekt":"Nee","Omschrijving":"Voetbalveld, combi-veld","Oppervlak":310,"Foto":"DeDriemaster.jpg"}},{"id":206,"type":"Feature","geometry":{"type":"Point","coordinates":[4.92171,52.4109001]},"properties":{"Naam":"PARLEVINKER","Sportvoorziening":"Voetbal","Locatie":"Schoolplein","Omheining":"Hekwerk laag","Ondergrond":"Stoeptegels","Verlichting":"Nee","Overdekt":"Nee","Omschrijving":"Voetbalveld, kleine doelen","Oppervlak":625,"Foto":"Parlevinker.jpg"}},{"id":207,"type":"Feature","geometry":{"type":"Point","coordinates":[4.9194999,52.4103012]},"properties":{"Naam":"OVERSLAG","Sportvoorziening":"Voetbal","Locatie":"Plantsoen","Omheining":"Ballenvangers","Ondergrond":"Asfalt","Verlichting":"Ja","Overdekt":"Nee","Omschrijving":"Voetbalveld met belijning, kleine doelen, zitbanken naast veld","Oppervlak":512,"Foto":"Overslag_2.jpg"}},{"id":208,"type":"Feature","geometry":{"type":"Point","coordinates":[4.9154801,52.4109001]},"properties":{"Naam":"VOORSTEVEN","Sportvoorziening":"Voetbal","Locatie":"Plantsoen","Omheining":"Hekwerk laag","Ondergrond":"Onverhard","Verlichting":"Nee","Overdekt":"Nee","Omschrijving":"Voetbalveld, kleine doelen, aan 1 zijde een ballenvanger","Oppervlak":317,"Foto":"Voorsteven.jpg"}},{"id":209,"type":"Feature","geometry":{"type":"Point","coordinates":[4.9152398,52.4057007]},"properties":{"Naam":"KOOPVAARDERSPLANTSOEN","Sportvoorziening":"Voetbal","Locatie":"Plantsoen","Omheining":"Hekwerk laag","Ondergrond":"Gras","Verlichting":"Nee","Overdekt":"Nee","Omschrijving":"Voetbalveld, kleine doelen","Oppervlak":369,"Foto":"Koopvaardersplantsoen.jpg"}},{"id":210,"type":"Feature","geometry":{"type":"Point","coordinates":[4.91153,52.4043007]},"properties":{"Naam":"VIERMASTERSTRAAT","Sportvoorziening":"Voetbal","Locatie":"Plein","Omheining":"Kooi open","Ondergrond":"Stoeptegels","Verlichting":"Nee","Overdekt":"Nee","Omschrijving":"Voetbalveld, kleine doelen, zitbanken naast veld","Oppervlak":230,"Foto":"Viermasterstraat.jpg"}},{"id":211,"type":"Feature","geometry":{"type":"Point","coordinates":[4.91185,52.4071999]},"properties":{"Naam":"TREILERHOF","Sportvoorziening":"Voetbal","Locatie":"Plantsoen","Omheining":"Ballenvangers","Ondergrond":"Stoeptegels","Verlichting":"Nee","Overdekt":"Nee","Omschrijving":"Voetbaldoel, zitbanken naast veld","Oppervlak":145,"Foto":"Treilerhof.jpg"}},{"id":212,"type":"Feature","geometry":{"type":"Point","coordinates":[4.9078999,52.4062996]},"properties":{"Naam":"VIKINGPAD","Sportvoorziening":"Voetbal","Locatie":"Plantsoen","Omheining":"Geen","Ondergrond":"Gras","Verlichting":"Nee","Overdekt":"Nee","Omschrijving":"Voetbalveld, kleine doelen","Oppervlak":1005,"Foto":"Vikingpad.jpg"}},{"id":213,"type":"Feature","geometry":{"type":"Point","coordinates":[4.9022698,52.419899]},"properties":{"Naam":"TWISKE","Sportvoorziening":"Voetbal","Locatie":"Speeltuin","Omheining":"Hekwerk laag","Ondergrond":"Stoeptegels","Verlichting":"Nee","Overdekt":"Nee","Omschrijving":"Voetbalveld, kleine doelen, speeltuin `t Twiske, zitbanken naast veld","Oppervlak":246,"Foto":"Twiske_1.jpg"}},{"id":214,"type":"Feature","geometry":{"type":"Point","coordinates":[4.8979402,52.4222984]},"properties":{"Naam":"LANGE VONDER","Sportvoorziening":"Voetbal","Locatie":"Stoep","Omheining":"Kooi gesloten","Ondergrond":"Asfalt","Verlichting":"Nee","Overdekt":"Nee","Omschrijving":"Voetbalveld","Oppervlak":276,"Foto":"LangeVonder.jpg"}},{"id":215,"type":"Feature","geometry":{"type":"Point","coordinates":[4.8860102,52.4115982]},"properties":{"Naam":"ANTARUSSTRAAT","Sportvoorziening":"Voetbal","Locatie":"Plantsoen","Omheining":"Ballenvangers","Ondergrond":"Stoeptegels","Verlichting":"Nee","Overdekt":"Nee","Omschrijving":"Voetbalveld, zitbanken naast veld","Oppervlak":458,"Foto":"Antarusstraat_1.jpg"}},{"id":216,"type":"Feature","geometry":{"type":"Point","coordinates":[4.88623,52.412899]},"properties":{"Naam":"OOSTZAAN","Sportvoorziening":"Voetbal","Locatie":"Speeltuin","Omheining":"Ballenvangers","Ondergrond":"Asfalt","Verlichting":"Nee","Overdekt":"Nee","Omschrijving":"Voetbalveld, speeltuin Oostzaan, combi-veld","Oppervlak":1357,"Foto":"Oostzaan.jpg"}},{"id":217,"type":"Feature","geometry":{"type":"Point","coordinates":[4.89047,52.4117012]},"properties":{"Naam":"CASTORPLEIN","Sportvoorziening":"Voetbal","Locatie":"Plantsoen","Omheining":"Ballenvangers","Ondergrond":"Asfalt","Verlichting":"Nee","Overdekt":"Nee","Omschrijving":"Voetbalveld, kleine doelen","Oppervlak":343,"Foto":"Castorplein.jpg"}},{"id":218,"type":"Feature","geometry":{"type":"Point","coordinates":[4.8948898,52.4048996]},"properties":{"Naam":"STREKKERWEG","Sportvoorziening":"Voetbal","Locatie":"Plantsoen","Omheining":"Ballenvangers","Ondergrond":"Asfalt","Verlichting":"Nee","Overdekt":"Nee","Omschrijving":"Voetbalveld, kleine doelen","Oppervlak":358,"Foto":"Strekkerweg.jpg"}},{"id":219,"type":"Feature","geometry":{"type":"Point","coordinates":[4.9075298,52.3889999]},"properties":{"Naam":"VOLEWIJCK","Sportvoorziening":"Voetbal","Locatie":"Speeltuin","Omheining":"Ballenvangers","Ondergrond":"Asfalt","Verlichting":"Nee","Overdekt":"Nee","Omschrijving":"Voetbalveld, kleine doelen, veld ligt verdiept, zitbanken naast veld","Oppervlak":533,"Foto":"Volewijck.jpg"}},{"id":220,"type":"Feature","geometry":{"type":"Point","coordinates":[4.9156499,52.3891983]},"properties":{"Naam":"VARENWEG","Sportvoorziening":"Voetbal","Locatie":"Plantsoen","Omheining":"Kooi gesloten","Ondergrond":"Asfalt","Verlichting":"Nee","Overdekt":"Nee","Omschrijving":"Voetbalveld, kleine doelen, zitbanken naast veld","Oppervlak":331,"Foto":"Varenweg_1.jpg"}},{"id":221,"type":"Feature","geometry":{"type":"Point","coordinates":[4.9159598,52.3919983]},"properties":{"Naam":"ANDOORNSTRAAT","Sportvoorziening":"Voetbal","Locatie":"Plein","Omheining":"Ballenvangers","Ondergrond":"Stoeptegels","Verlichting":"Nee","Overdekt":"Nee","Omschrijving":"Voetbalveld","Oppervlak":260,"Foto":"Andoornstraat.jpg"}},{"id":222,"type":"Feature","geometry":{"type":"Point","coordinates":[4.91401,52.3916016]},"properties":{"Naam":"MOSVELD","Sportvoorziening":"Voetbal","Locatie":"Plantsoen","Omheining":"Ballenvangers","Ondergrond":"Stoeptegels","Verlichting":"Nee","Overdekt":"Nee","Omschrijving":"Voetbalveld, kleine doelen","Oppervlak":302,"Foto":"Mosveld.jpg"}},{"id":223,"type":"Feature","geometry":{"type":"Point","coordinates":[4.91189,52.4005013]},"properties":{"Naam":"FLORAWEG","Sportvoorziening":"Voetbal","Locatie":"Schoolplein","Omheining":"Ballenvangers","Ondergrond":"Asfalt","Verlichting":"Nee","Overdekt":"Nee","Omschrijving":"Voetbalveld, combi-veld, zitbanken naast veldv","Oppervlak":459,"Foto":"Floraweg_1.jpg"}},{"id":224,"type":"Feature","geometry":{"type":"Point","coordinates":[4.9151802,52.4003983]},"properties":{"Naam":"FLORAWEG","Sportvoorziening":"Voetbal","Locatie":"Plantsoen","Omheining":"Geen","Ondergrond":"Gras","Verlichting":"Nee","Overdekt":"Nee","Omschrijving":"Voetbalveld","Oppervlak":1842,"Foto":"Floraweg_3.jpg"}},{"id":226,"type":"Feature","geometry":{"type":"Point","coordinates":[4.9161901,52.3955002]},"properties":{"Naam":"AZALEASTRAAT","Sportvoorziening":"Voetbal","Locatie":"Schoolplein","Omheining":"Ballenvangers","Ondergrond":"Stoeptegels","Verlichting":"Nee","Overdekt":"Nee","Omschrijving":"Voetbaldoel, kleine doelen, zitbanken naast veld","Oppervlak":316,"Foto":"Azaleastraat.jpg"}},{"id":227,"type":"Feature","geometry":{"type":"Point","coordinates":[4.8401599,52.3807983]},"properties":{"Naam":"WILTZANGH","Sportvoorziening":"Voetbal","Locatie":"Schoolplein","Omheining":"Geen","Ondergrond":"Asfalt","Verlichting":"Ja","Overdekt":"Nee","Omschrijving":"Voetbalveld met belijning, kleine doelen, zitbanken naast veld, combi-veld","Oppervlak":403,"Foto":"Wiltzangh_1.jpg"}},{"id":229,"type":"Feature","geometry":{"type":"Point","coordinates":[4.8474689,52.3823395]},"properties":{"Naam":"DE BOOM","Sportvoorziening":"Voetbal","Locatie":"Speeltuin","Omheining":"Gedeeltelijk","Ondergrond":"Stoeptegels","Verlichting":"Nee","Overdekt":"Nee","Omschrijving":"Voetbalveld, kleine doelen","Oppervlak":464,"Foto":"DeBoom.jpg"}},{"id":230,"type":"Feature","geometry":{"type":"Point","coordinates":[4.8515992,52.3813248]},"properties":{"Naam":"HERTSPIEGHELPLEIN","Sportvoorziening":"Voetbal","Locatie":"Speeltuin","Omheining":"Ballenvangers","Ondergrond":"Kunstgras","Verlichting":"Ja","Overdekt":"Nee","Omschrijving":"Voetbalveld met belijning","Oppervlak":1044,"Foto":"Hertspieghelplein voetbal.jpg"}},{"id":231,"type":"Feature","geometry":{"type":"Point","coordinates":[4.8397999,52.3769989]},"properties":{"Naam":"ERNEST STAESPLEIN","Sportvoorziening":"Voetbal","Locatie":"Plein","Omheining":"Ballenvangers","Ondergrond":"Asfalt","Verlichting":"Nee","Overdekt":"Nee","Omschrijving":"Voetbalveld met belijning, veld ligt verdiept, 1 lange zijde laag dubbelstaafmat hekwerk, zitbanken naast veld","Oppervlak":873,"Foto":"ErnestStaesplein.jpg"}},{"id":232,"type":"Feature","geometry":{"type":"Point","coordinates":[4.8529382,52.3778229]},"properties":{"Naam":"WACHTERLIEDPLANTSOEN","Sportvoorziening":"Voetbal","Locatie":"Speeltuin","Omheining":"Ballenvangers","Ondergrond":"Asfalt","Verlichting":"Nee","Overdekt":"Nee","Omschrijving":"Voetbalveld met belijning, 2 lange zijden laag spijlenhekwerk","Oppervlak":0,"Foto":"Wachterliedplantsoen voetbal.JPG"}},{"id":233,"type":"Feature","geometry":{"type":"Point","coordinates":[4.8541098,52.3773041]},"properties":{"Naam":"WACHTERLIEDPLANTSOEN","Sportvoorziening":"Voetbal","Locatie":"Speeltuin","Omheining":"Ballenvangers","Ondergrond":"Kunstgras","Verlichting":"Nee","Overdekt":"Nee","Omschrijving":"Voetbalveld, kleine doeltjes, verlaagd, zitbanken naast veld","Oppervlak":486,"Foto":"Wachterliedplantsoen speeltuin.JPG"}},{"id":234,"type":"Feature","geometry":{"type":"Point","coordinates":[4.8595829,52.378952]},"properties":{"Naam":"KAREL DOORMANPLEIN","Sportvoorziening":"Voetbal","Locatie":"Schoolplein","Omheining":"Ballenvangers","Ondergrond":"Asfalt","Verlichting":"Nee","Overdekt":"Nee","Omschrijving":"Voetbalveld met belijning, veld ligt verdiept, kleine doelen, 1 lange zijde hoog dubbelstaafmat hekwerk","Oppervlak":825,"Foto":"DeRuijter_1.jpg"}},{"id":235,"type":"Feature","geometry":{"type":"Point","coordinates":[4.8565798,52.3759995]},"properties":{"Naam":"JOOS BANCKERSWEG","Sportvoorziening":"Voetbal","Locatie":"Sportpark","Omheining":"Ballenvangers","Ondergrond":"Asfalt","Verlichting":"Nee","Overdekt":"Nee","Omschrijving":"Voetbalveld met belijning, kleine doelen, 1 lange zijde laag dubbelstaafmat hekwerk, combi-veld, ballenvangers (3 zijden)","Oppervlak":383,"Foto":"JoosBanckersweg_1.jpg"}},{"id":236,"type":"Feature","geometry":{"type":"Point","coordinates":[4.8510299,52.375]},"properties":{"Naam":"ERASMUSPARK","Sportvoorziening":"Voetbal","Locatie":"Park","Omheining":"Geen","Ondergrond":"Gras","Verlichting":"Nee","Overdekt":"Nee","Omschrijving":"Voetbalveld, zitbanken naast veld","Oppervlak":6104,"Foto":"Erasmuspark.jpg"}},{"id":239,"type":"Feature","geometry":{"type":"Point","coordinates":[4.8535538,52.3824272]},"properties":{"Naam":"KIJKDUINSTRAAT","Sportvoorziening":"Voetbal","Locatie":"Plantsoen","Omheining":"Kooi open","Ondergrond":"Asfalt","Verlichting":"Nee","Overdekt":"Nee","Omschrijving":"Voetbalveld met kleine doeltjes","Oppervlak":342,"Foto":"Kijkduinstraat voetbal.jpg"}},{"id":240,"type":"Feature","geometry":{"type":"Point","coordinates":[4.9028602,52.3564987]},"properties":{"Naam":"HEMONYSTRAAT","Sportvoorziening":"Voetbal","Locatie":"Stoep","Omheining":"Hekwerk laag","Ondergrond":"Stoeptegels","Verlichting":"Nee","Overdekt":"Nee","Omschrijving":"Voetbalveld, kleine doelen, zitbanken naast veld","Oppervlak":23,"Foto":"Hemonystraat.jpg"}},{"id":241,"type":"Feature","geometry":{"type":"Point","coordinates":[4.9036999,52.3553009]},"properties":{"Naam":"SERVEASNOUTSSTRAAT","Sportvoorziening":"Voetbal","Locatie":"Plein","Omheining":"Ballenvangers","Ondergrond":"Asfalt","Verlichting":"Nee","Overdekt":"Nee","Omschrijving":"Voetbalveld, zitbanken naast veld","Oppervlak":596,"Foto":"Serveasnoutsstraat_1.jpg"}},{"id":242,"type":"Feature","geometry":{"type":"Point","coordinates":[4.9054499,52.3507004]},"properties":{"Naam":"SMARAGDPLEIN","Sportvoorziening":"Voetbal","Locatie":"Plein","Omheining":"Kooi gesloten","Ondergrond":"Asfalt","Verlichting":"Nee","Overdekt":"Nee","Omschrijving":"Voetbalveld, combi-veld","Oppervlak":396,"Foto":"Smaragdplein.jpg"}},{"id":243,"type":"Feature","geometry":{"type":"Point","coordinates":[4.9010291,52.3496971]},"properties":{"Naam":"RONNERPLEIN","Sportvoorziening":"Voetbal","Locatie":"Plein","Omheining":"Kooi open","Ondergrond":"Asfalt","Verlichting":"Nee","Overdekt":"Nee","Omschrijving":"Voetbalveld, kleine doelen, zitbanken naast veld","Oppervlak":323,"Foto":"HRomerplein.jpg"}},{"id":244,"type":"Feature","geometry":{"type":"Point","coordinates":[4.8983402,52.3515015]},"properties":{"Naam":"KEIJSERPLEIN","Sportvoorziening":"Voetbal","Locatie":"Speeltuin","Omheining":"Kooi open","Ondergrond":"Asfalt","Verlichting":"Ja","Overdekt":"Nee","Omschrijving":"Voetbalveld, combi-veld, speeltuin Henrick de Keijser, zitbanken naast veld","Oppervlak":997,"Foto":"HdeKeijserplein_1.jpg"}},{"id":245,"type":"Feature","geometry":{"type":"Point","coordinates":[4.8945398,52.3497009]},"properties":{"Naam":"ANSINGHSTRAAT","Sportvoorziening":"Voetbal","Locatie":"Stoep","Omheining":"Kooi open","Ondergrond":"Stoeptegels","Verlichting":"Nee","Overdekt":"Nee","Omschrijving":"Voetbalveld","Oppervlak":180,"Foto":"LAnsinghstraat.jpg"}},{"id":247,"type":"Feature","geometry":{"type":"Point","coordinates":[4.8782301,52.3525009]},"properties":{"Naam":"OBRECHTPLEIN","Sportvoorziening":"Voetbal","Locatie":"Schoolplein","Omheining":"Hekwerk","Ondergrond":"Asfalt","Verlichting":"Nee","Overdekt":"Nee","Omschrijving":"Voetbalveld","Oppervlak":346,"Foto":"JObrechtplein_1.jpg"}},{"id":248,"type":"Feature","geometry":{"type":"Point","coordinates":[4.8471899,52.3550987]},"properties":{"Naam":"BOCKESPRONG","Sportvoorziening":"Voetbal","Locatie":"Speeltuin","Omheining":"Geen","Ondergrond":"Asfalt","Verlichting":"Nee","Overdekt":"Nee","Omschrijving":"Voetbalveld, combi-veld","Oppervlak":1502,"Foto":"Bockesprong_1.jpg"}},{"id":249,"type":"Feature","geometry":{"type":"Point","coordinates":[4.8618398,52.3437004]},"properties":{"Naam":"ARGONAUTENSTRAAT","Sportvoorziening":"Voetbal","Locatie":"Speeltuin","Omheining":"Hekwerk","Ondergrond":"Asfalt","Verlichting":"Nee","Overdekt":"Nee","Omschrijving":"Voetbalveld, kleine doelen, zitbanken naast veld","Oppervlak":1690,"Foto":"Olympia_3.jpg"}},{"id":250,"type":"Feature","geometry":{"type":"Point","coordinates":[4.8615799,52.3436012]},"properties":{"Naam":"ARGONAUTENSTRAAT","Sportvoorziening":"Voetbal","Locatie":"Speeltuin","Omheining":"Ballenvangers","Ondergrond":"Asfalt","Verlichting":"Nee","Overdekt":"Nee","Omschrijving":"Voetbalveld, zitbanken naast veld","Oppervlak":796,"Foto":"Olympia_1.jpg"}},{"id":251,"type":"Feature","geometry":{"type":"Point","coordinates":[4.8653498,52.3451004]},"properties":{"Naam":"KERKENPLEIN","Sportvoorziening":"Voetbal","Locatie":"Plantsoen","Omheining":"Kooi open","Ondergrond":"Stoeptegels","Verlichting":"Nee","Overdekt":"Nee","Omschrijving":"Voetbalveld","Oppervlak":388,"Foto":"Kerkenplein.jpg"}},{"id":252,"type":"Feature","geometry":{"type":"Point","coordinates":[4.8663702,52.3469009]},"properties":{"Naam":"OLYMPIAPLEIN","Sportvoorziening":"Voetbal","Locatie":"Plein","Omheining":"Kooi open","Ondergrond":"Asfalt","Verlichting":"Ja","Overdekt":"Nee","Omschrijving":"Voetbalveld, zitbanken naast veld","Oppervlak":468,"Foto":"Olympiaplein_1.jpg"}},{"id":253,"type":"Feature","geometry":{"type":"Point","coordinates":[4.86726,52.3470993]},"properties":{"Naam":"OLYMPIAPLEIN","Sportvoorziening":"Voetbal","Locatie":"Plein","Omheining":"Kooi open","Ondergrond":"Asfalt","Verlichting":"Ja","Overdekt":"Nee","Omschrijving":"Voetbalveld, kleine doelen, zitbanken naast veld","Oppervlak":101,"Foto":"Olympiaplein_3.jpg"}},{"id":255,"type":"Feature","geometry":{"type":"Point","coordinates":[4.8634,52.3471985]},"properties":{"Naam":"HYGIEAPLEIN","Sportvoorziening":"Voetbal","Locatie":"Schoolplein","Omheining":"Ballenvangers","Ondergrond":"Asfalt","Verlichting":"Nee","Overdekt":"Nee","Omschrijving":"Voetbalveld, kleine doelen, zitbanken naast veld","Oppervlak":468,"Foto":"Hygieaplein_1.jpg"}},{"id":256,"type":"Feature","geometry":{"type":"Point","coordinates":[4.8631501,52.3469009]},"properties":{"Naam":"HYGIEAPLEIN","Sportvoorziening":"Voetbal","Locatie":"Schoolplein","Omheining":"Ballenvangers","Ondergrond":"Asfalt","Verlichting":"Nee","Overdekt":"Nee","Omschrijving":"Voetbalveld, kleine doelen, combi-veld, zitbanken naast veld","Oppervlak":403,"Foto":"Hygieaplein_2.jpg"}},{"id":257,"type":"Feature","geometry":{"type":"Point","coordinates":[4.8548102,52.3597984]},"properties":{"Naam":"PARAMARIBOPLEIN","Sportvoorziening":"Voetbal","Locatie":"Plein","Omheining":"Ballenvangers","Ondergrond":"Asfalt","Verlichting":"Nee","Overdekt":"Nee","Omschrijving":"Voetbalveld, zitbanken naast veld","Oppervlak":250,"Foto":"Paramariboplein.jpg"}},{"id":258,"type":"Feature","geometry":{"type":"Point","coordinates":[4.8526001,52.3618011]},"properties":{"Naam":"CORANTIJNSTRAAT","Sportvoorziening":"Voetbal","Locatie":"Schoolplein","Omheining":"Ballenvangers","Ondergrond":"Stoeptegels","Verlichting":"Nee","Overdekt":"Nee","Omschrijving":"Voetbalveld, kleine doelen, zitbanken naast veld","Oppervlak":155,"Foto":"Corantijnstraat_2.jpg"}},{"id":259,"type":"Feature","geometry":{"type":"Point","coordinates":[4.8505702,52.3646011]},"properties":{"Naam":"MIDDELLANDSTRAAT","Sportvoorziening":"Voetbal","Locatie":"Stoep","Omheining":"Geen","Ondergrond":"Stoeptegels","Verlichting":"Nee","Overdekt":"Nee","Omschrijving":"Voetbalveld, kleine doelen, zitbanken naast veld","Oppervlak":281,"Foto":"vMiddellandstraat_2.jpg"}},{"id":260,"type":"Feature","geometry":{"type":"Point","coordinates":[4.8465099,52.3699989]},"properties":{"Naam":"MERCATOR","Sportvoorziening":"Voetbal","Locatie":"Speeltuin","Omheining":"Ballenvangers","Ondergrond":"Asfalt","Verlichting":"Nee","Overdekt":"Nee","Omschrijving":"Voetbalveld met belijning","Oppervlak":617,"Foto":"Mercator_2.jpg"}},{"id":261,"type":"Feature","geometry":{"type":"Point","coordinates":[4.8520999,52.3711014]},"properties":{"Naam":"JAN MAIJENSTRAAT","Sportvoorziening":"Voetbal","Locatie":"Plein","Omheining":"Geen","Ondergrond":"Stoeptegels","Verlichting":"Nee","Overdekt":"Nee","Omschrijving":"Voetbalveld, kleine doelen, zitbanken naast veld","Oppervlak":252,"Foto":"JanMaijenstraat.jpg"}},{"id":262,"type":"Feature","geometry":{"type":"Point","coordinates":[4.8552881,52.3733352]},"properties":{"Naam":"VANCOUVERSTRAAT","Sportvoorziening":"Voetbal","Locatie":"Schoolplein","Omheining":"Geen","Ondergrond":"Asfalt","Verlichting":"Nee","Overdekt":"Nee","Omschrijving":"Voetbalveld, kleine doelen, zitbanken naast veld","Oppervlak":150,"Foto":""}},{"id":263,"type":"Feature","geometry":{"type":"Point","coordinates":[4.8579302,52.3726997]},"properties":{"Naam":"PIETER VAN DE DOESSTRAAT","Sportvoorziening":"Voetbal","Locatie":"Plein","Omheining":"Ballenvangers","Ondergrond":"Stoeptegels","Verlichting":"Nee","Overdekt":"Nee","Omschrijving":"Voetbalveld, zitbanken naast veld","Oppervlak":327,"Foto":""}},{"id":264,"type":"Feature","geometry":{"type":"Point","coordinates":[4.8612099,52.3742981]},"properties":{"Naam":"REINIER CLAESZENPLEIN","Sportvoorziening":"Voetbal","Locatie":"Plantsoen","Omheining":"Geen","Ondergrond":"Stoeptegels","Verlichting":"Nee","Overdekt":"Nee","Omschrijving":"Voetbalveld, kleine doelen, zitbanken naast veld","Oppervlak":93,"Foto":"RClaeszenplein.jpg"}},{"id":265,"type":"Feature","geometry":{"type":"Point","coordinates":[4.8551168,52.3664017]},"properties":{"Naam":"COLUMBUSPLEIN","Sportvoorziening":"Voetbal","Locatie":"Speeltuin","Omheining":"Ballenvangers","Ondergrond":"Asfalt","Verlichting":"Ja","Overdekt":"Nee","Omschrijving":"Voetbalveld met belijning, grote en kleine doelen, zitbanken naast veld","Oppervlak":0,"Foto":"Columbusplein.JPG"}},{"id":266,"type":"Feature","geometry":{"type":"Point","coordinates":[4.85566,52.3684998]},"properties":{"Naam":"BALBOAPLEIN","Sportvoorziening":"Voetbal","Locatie":"Plein","Omheining":"Ballenvangers","Ondergrond":"Asfalt","Verlichting":"Ja","Overdekt":"Nee","Omschrijving":"Voetbalveld met belijning, zitbanken naast veld","Oppervlak":795,"Foto":"Balboaplein_1.jpg"}},{"id":267,"type":"Feature","geometry":{"type":"Point","coordinates":[4.8554902,52.3688011]},"properties":{"Naam":"BALBOAPLEIN","Sportvoorziening":"Voetbal","Locatie":"Plein","Omheining":"Geen","Ondergrond":"Asfalt","Verlichting":"Nee","Overdekt":"Nee","Omschrijving":"Voetbalveld met belijning, kleine doelen, zitbanken naast veld","Oppervlak":362,"Foto":"Balboaplein_2.jpg"}},{"id":268,"type":"Feature","geometry":{"type":"Point","coordinates":[4.8091898,52.3762016]},"properties":{"Naam":"KIERKEGAARDSTRAAT","Sportvoorziening":"Voetbal","Locatie":"Plantsoen","Omheining":"Ballenvangers","Ondergrond":"Gras","Verlichting":"Nee","Overdekt":"Nee","Omschrijving":"Voetbalveld","Oppervlak":603,"Foto":"Kierkegaardstraat.jpg"}},{"id":269,"type":"Feature","geometry":{"type":"Point","coordinates":[4.8076401,52.3778]},"properties":{"Naam":"Lodewijk van Deysselstraat\/Eendrachtspark","Sportvoorziening":"Voetbal","Locatie":"Park","Omheining":"Ballenvangers","Ondergrond":"Kunstgras","Verlichting":"Ja","Overdekt":"Nee","Omschrijving":"Voetbalveld","Oppervlak":917,"Foto":"Eendrachtspark_3.jpg"}},{"id":270,"type":"Feature","geometry":{"type":"Point","coordinates":[4.81529,52.3793983]},"properties":{"Naam":"Voetbalveld Jan de Louterpad","Sportvoorziening":"Voetbal","Locatie":"Plantsoen","Omheining":"Geen","Ondergrond":"Gras","Verlichting":"Nee","Overdekt":"Nee","Omschrijving":"Voetbalveld","Oppervlak":1080,"Foto":"JdeLouterpad.jpg"}},{"id":271,"type":"Feature","geometry":{"type":"Point","coordinates":[4.8034101,52.3811989]},"properties":{"Naam":"HASSELAARSSTRAAT","Sportvoorziening":"Voetbal","Locatie":"Plein","Omheining":"Ballenvangers","Ondergrond":"Kunstgras","Verlichting":"Nee","Overdekt":"Nee","Omschrijving":"Voetbalveld, zitbanken naast veld","Oppervlak":268,"Foto":"KSHasselaarstraat_2.jpg"}},{"id":272,"type":"Feature","geometry":{"type":"Point","coordinates":[4.79498,52.3810997]},"properties":{"Naam":"Cornelis Outshoornstraat","Sportvoorziening":"Voetbal","Locatie":"Plantsoen","Omheining":"Ballenvangers","Ondergrond":"Asfalt","Verlichting":"Nee","Overdekt":"Nee","Omschrijving":"Voetbalveld met belijning, combi-veld, kleine doelen, zitbanken naast veld","Oppervlak":372,"Foto":"Cornelis.jpg"}},{"id":273,"type":"Feature","geometry":{"type":"Point","coordinates":[4.7893701,52.3771019]},"properties":{"Naam":"PARK DE KUIL","Sportvoorziening":"Voetbal","Locatie":"Park","Omheining":"Geen","Ondergrond":"Gras","Verlichting":"Nee","Overdekt":"Nee","Omschrijving":"Voetbalveld, zitbanken naast veld","Oppervlak":3162,"Foto":"ParkdeKuil.jpg"}},{"id":274,"type":"Feature","geometry":{"type":"Point","coordinates":[4.7988701,52.3773003]},"properties":{"Naam":"BORGESIUSSTRAAT","Sportvoorziening":"Voetbal","Locatie":"Plein","Omheining":"Ballenvangers","Ondergrond":"Stoeptegels","Verlichting":"Nee","Overdekt":"Nee","Omschrijving":"Voetbaldoel","Oppervlak":146,"Foto":"GBorgesiusstraat.jpg"}},{"id":275,"type":"Feature","geometry":{"type":"Point","coordinates":[4.7971902,52.3764]},"properties":{"Naam":"Michel de Klerkhof","Sportvoorziening":"Voetbal","Locatie":"Schoolplein","Omheining":"Ballenvangers","Ondergrond":"Asfalt","Verlichting":"Nee","Overdekt":"Nee","Omschrijving":"Voetbalveld met belijning, combi-veld, zitbanken naast veld","Oppervlak":1525,"Foto":"MdeKlerkhof_1.jpg"}},{"id":276,"type":"Feature","geometry":{"type":"Point","coordinates":[4.8123798,52.3745003]},"properties":{"Naam":"CONFUCIUSPLEIN","Sportvoorziening":"Voetbal","Locatie":"Plein","Omheining":"Kooi open","Ondergrond":"Stoeptegels","Verlichting":"Nee","Overdekt":"Nee","Omschrijving":"Voetbalveld, combi-veld","Oppervlak":305,"Foto":"Confuciusplein.jpg"}},{"id":277,"type":"Feature","geometry":{"type":"Point","coordinates":[4.8354201,52.3757019]},"properties":{"Naam":"Voetbalveld Broedeletstraat","Sportvoorziening":"Voetbal","Locatie":"Plantsoen","Omheining":"Geen","Ondergrond":"Asfalt","Verlichting":"Nee","Overdekt":"Nee","Omschrijving":"Voetbalveld, combi-veld","Oppervlak":1137,"Foto":"BurgCramergracht_1.jpg"}},{"id":278,"type":"Feature","geometry":{"type":"Point","coordinates":[4.8271599,52.3782005]},"properties":{"Naam":"GERBRANDYPARK","Sportvoorziening":"Voetbal","Locatie":"Park","Omheining":"Geen","Ondergrond":"Gras","Verlichting":"Nee","Overdekt":"Nee","Omschrijving":"Voetbalveld","Oppervlak":739,"Foto":"Gerbrandypark_1.jpg"}},{"id":280,"type":"Feature","geometry":{"type":"Point","coordinates":[4.8257399,52.3818016]},"properties":{"Naam":"SLOTERMEER","Sportvoorziening":"Voetbal","Locatie":"Speeltuin","Omheining":"Hekwerk laag","Ondergrond":"Asfalt","Verlichting":"Nee","Overdekt":"Nee","Omschrijving":"Voetbalveld, combi-veld, kleine doelen, speeltuin Slotermeer","Oppervlak":819,"Foto":"Slotermeer_2.jpg"}},{"id":281,"type":"Feature","geometry":{"type":"Point","coordinates":[4.8231702,52.3824005]},"properties":{"Naam":"VOSSTRAAT","Sportvoorziening":"Voetbal","Locatie":"Plantsoen","Omheining":"Ballenvangers","Ondergrond":"Gras","Verlichting":"Nee","Overdekt":"Nee","Omschrijving":"Voetbalveld Cruyff court","Oppervlak":1281,"Foto":"DVosstraat.jpg"}},{"id":282,"type":"Feature","geometry":{"type":"Point","coordinates":[4.81989,52.3827019]},"properties":{"Naam":"ZWANENBURGHOF","Sportvoorziening":"Voetbal","Locatie":"Plein","Omheining":"Ballenvangers","Ondergrond":"Stoeptegels","Verlichting":"Nee","Overdekt":"Nee","Omschrijving":"Voetbalveld, zitbanken naast veld","Oppervlak":418,"Foto":"JZwanenburghof.jpg"}},{"id":283,"type":"Feature","geometry":{"type":"Point","coordinates":[4.82233,52.3835983]},"properties":{"Naam":"SLOTERMEERLAAN","Sportvoorziening":"Voetbal","Locatie":"Schoolplein","Omheining":"Hekwerk laag","Ondergrond":"Stoeptegels","Verlichting":"Nee","Overdekt":"Nee","Omschrijving":"Voetbaldoel, klein doel","Oppervlak":276,"Foto":"Slotermeerlaan.jpg"}},{"id":284,"type":"Feature","geometry":{"type":"Point","coordinates":[4.8031902,52.3541985]},"properties":{"Naam":"Hoekenes","Sportvoorziening":"Voetbal","Locatie":"Schoolplein","Omheining":"Kooi open","Ondergrond":"Stoeptegels","Verlichting":"Nee","Overdekt":"Nee","Omschrijving":"Voetbalveld, zitbanken naast veld","Oppervlak":295,"Foto":"Montessori.jpg"}},{"id":286,"type":"Feature","geometry":{"type":"Point","coordinates":[4.8003898,52.358799]},"properties":{"Naam":"M. Hanenbergstraat","Sportvoorziening":"Voetbal","Locatie":"Plantsoen","Omheining":"Hekwerk","Ondergrond":"Stoeptegels","Verlichting":"Nee","Overdekt":"Nee","Omschrijving":"Voetbaldoel, combi-veld","Oppervlak":194,"Foto":"Hanenbergstraat_1.jpg"}},{"id":287,"type":"Feature","geometry":{"type":"Point","coordinates":[4.8029499,52.3618011]},"properties":{"Naam":"REMIJDEN","Sportvoorziening":"Voetbal","Locatie":"Plantsoen","Omheining":"Ballenvangers","Ondergrond":"Stoeptegels","Verlichting":"Nee","Overdekt":"Nee","Omschrijving":"Voetbalveld met belijning, zitbanken naast veld","Oppervlak":861,"Foto":"Remijden_2.jpg"}},{"id":288,"type":"Feature","geometry":{"type":"Point","coordinates":[4.8000002,52.3638]},"properties":{"Naam":"VELDZICHT","Sportvoorziening":"Voetbal","Locatie":"Plantsoen","Omheining":"Kooi open","Ondergrond":"Asfalt","Verlichting":"Nee","Overdekt":"Nee","Omschrijving":"Voetbalveld","Oppervlak":378,"Foto":"Veldzicht.jpg"}},{"id":289,"type":"Feature","geometry":{"type":"Point","coordinates":[4.7927599,52.3625984]},"properties":{"Naam":"STEELVLIETSTRAAT","Sportvoorziening":"Voetbal","Locatie":"Plein","Omheining":"Kooi open","Ondergrond":"Stoeptegels","Verlichting":"Nee","Overdekt":"Nee","Omschrijving":"Voetbalveld, zitbanken naast veld","Oppervlak":160,"Foto":"Steelvlietstraat_1.jpg"}},{"id":290,"type":"Feature","geometry":{"type":"Point","coordinates":[4.7935555,52.3593377]},"properties":{"Naam":"BOTTESKERKSINGEL","Sportvoorziening":"Voetbal","Locatie":"Plantsoen","Omheining":"Ballenvangers","Ondergrond":"Kunstgras","Verlichting":"Nee","Overdekt":"Nee","Omschrijving":"Voetbalveld Cruyff court","Oppervlak":1070,"Foto":""}},{"id":291,"type":"Feature","geometry":{"type":"Point","coordinates":[4.7873226,52.3572514]},"properties":{"Naam":"SCHUITENHUISSTRAAT","Sportvoorziening":"Voetbal","Locatie":"Schoolplein","Omheining":"Ballenvangers","Ondergrond":"Stoeptegels","Verlichting":"Nee","Overdekt":"Nee","Omschrijving":"Voetbalveld, combi-veld, zitbanken naast veld","Oppervlak":118,"Foto":""}},{"id":292,"type":"Feature","geometry":{"type":"Point","coordinates":[4.7779398,52.3568001]},"properties":{"Naam":"TERPSTRAAT","Sportvoorziening":"Voetbal","Locatie":"Plantsoen","Omheining":"Geen","Ondergrond":"Gras","Verlichting":"Nee","Overdekt":"Nee","Omschrijving":"Voetbalveld","Oppervlak":659,"Foto":"Terpstraat_1.jpg"}},{"id":293,"type":"Feature","geometry":{"type":"Point","coordinates":[4.7796202,52.3562012]},"properties":{"Naam":"TERPSTRAAT","Sportvoorziening":"Voetbal","Locatie":"Stoep","Omheining":"Ballenvangers","Ondergrond":"Asfalt","Verlichting":"Nee","Overdekt":"Nee","Omschrijving":"Voetbalveld met belijning, kleine doelen, zitbanken naast veld","Oppervlak":368,"Foto":"Terpstraat_2.jpg"}},{"id":294,"type":"Feature","geometry":{"type":"Point","coordinates":[4.7779298,52.3541985]},"properties":{"Naam":"SEIFERTPLEIN","Sportvoorziening":"Voetbal","Locatie":"Plein","Omheining":"Kooi open","Ondergrond":"Kunstgras","Verlichting":"Nee","Overdekt":"Nee","Omschrijving":"Voetbalveld, kleine doelen, zitbanken naast veld","Oppervlak":181,"Foto":"Seifertplein.jpg"}},{"id":295,"type":"Feature","geometry":{"type":"Point","coordinates":[4.7727699,52.3520012]},"properties":{"Naam":"MONTBLANCPLEIN","Sportvoorziening":"Voetbal","Locatie":"Plantsoen","Omheining":"Geen","Ondergrond":"Kunstgras","Verlichting":"Nee","Overdekt":"Nee","Omschrijving":"Voetbalveld, zitbanken naast veld","Oppervlak":374,"Foto":"MontBlancplein.jpg"}},{"id":296,"type":"Feature","geometry":{"type":"Point","coordinates":[4.7750301,52.3506012]},"properties":{"Naam":"MONTAROSAPLEIN","Sportvoorziening":"Voetbal","Locatie":"Schoolplein","Omheining":"Ballenvangers","Ondergrond":"Asfalt","Verlichting":"Nee","Overdekt":"Nee","Omschrijving":"Voetbalveld, kleine doelen, zitbanken naast veld","Oppervlak":258,"Foto":"MontaRosaplein_1.jpg"}},{"id":297,"type":"Feature","geometry":{"type":"Point","coordinates":[4.7841902,52.3516998]},"properties":{"Naam":"WOORTMANPLEIN","Sportvoorziening":"Voetbal","Locatie":"Plein","Omheining":"Kooi open","Ondergrond":"Asfalt","Verlichting":"Nee","Overdekt":"Nee","Omschrijving":"Voetbalveld","Oppervlak":321,"Foto":"JWoortmanplein.jpg"}},{"id":298,"type":"Feature","geometry":{"type":"Point","coordinates":[4.7837,52.3476982]},"properties":{"Naam":"GULDENPROMENADE","Sportvoorziening":"Voetbal","Locatie":"Plantsoen","Omheining":"Geen","Ondergrond":"Kunstgras","Verlichting":"Nee","Overdekt":"Nee","Omschrijving":"Voetbalveld, zitbanken naast veld","Oppervlak":759,"Foto":"Guldenpromenade.jpg"}},{"id":299,"type":"Feature","geometry":{"type":"Point","coordinates":[4.7958398,52.3423004]},"properties":{"Naam":"SPEELTUIN SLOTEN","Sportvoorziening":"Voetbal","Locatie":"Speeltuin","Omheining":"Geen","Ondergrond":"Gras","Verlichting":"Nee","Overdekt":"Nee","Omschrijving":"Voetbalveld, speeltuin Sloten, zitbanken naast veld","Oppervlak":917,"Foto":"Sloten_2.jpg"}},{"id":300,"type":"Feature","geometry":{"type":"Point","coordinates":[4.7955699,52.3534012]},"properties":{"Naam":"VISSERPLEIN","Sportvoorziening":"Voetbal","Locatie":"Plein","Omheining":"Kooi open","Ondergrond":"Asfalt","Verlichting":"Ja","Overdekt":"Nee","Omschrijving":"Voetbalveld met belijning, veld ligt verdiept","Oppervlak":1420,"Foto":"LdeVisserplein.jpg"}},{"id":301,"type":"Feature","geometry":{"type":"Point","coordinates":[4.7962599,52.3560982]},"properties":{"Naam":"HERTINGENSTRAAT","Sportvoorziening":"Voetbal","Locatie":"Plein","Omheining":"Geen","Ondergrond":"Asfalt","Verlichting":"Ja","Overdekt":"Nee","Omschrijving":"Voetbalveld","Oppervlak":451,"Foto":"Hertingenstraat.jpg"}},{"id":302,"type":"Feature","geometry":{"type":"Point","coordinates":[4.8123297,52.3526959]},"properties":{"Naam":"Funke K\u00fcpperstraat","Sportvoorziening":"Voetbal","Locatie":"Plantsoen","Omheining":"Ballenvangers","Ondergrond":"Kunstgras","Verlichting":"Ja","Overdekt":"Nee","Omschrijving":"Voetbalveld met belijning, kleine doelen","Oppervlak":80,"Foto":""}},